<?xml version="1.0"?>
<domains>
  <domain>
    <name>edu.au</name>
    <location>
      <country>
        <code/>
        <name/>
      </country>
      <city>
        <name/>
        <latitude/>
        <longitude/>
      </city>
      <university>
        <name/>
        <department/>
      </university>
    </location>
  </domain>
  <domain>
    <name>fordham.edu</name>
    <location>
      <country>
        <code>DE</code>
        <name>Germany</name>
      </country>
      <city>
        <name>N/A</name>
        <latitude>51.000000</latitude>
        <longitude>9.000000</longitude>
      </city>
      <university>
        <name>NA</name>
        <department>NA</department>
      </university>
    </location>
  </domain>
  <domain>
    <name>gmail.com</name>
    <location>
      <country>
        <code>US</code>
        <name>United States</name>
      </country>
      <city>
        <name>Mountain View</name>
        <latitude>37.419201</latitude>
        <longitude>-122.057404</longitude>
      </city>
      <university>
        <name>NA</name>
        <department>NA</department>
      </university>
    </location>
  </domain>
  <domain>
    <name>technion.ac.il</name>
    <location>
      <country>
        <code>IL</code>
        <name>Israel</name>
      </country>
      <city>
        <name>N/A</name>
        <latitude>31.500000</latitude>
        <longitude>34.750000</longitude>
      </city>
      <university>
        <name>NA</name>
        <department>NA</department>
      </university>
    </location>
  </domain>
  <domain>
    <name>edu.sg</name>
    <location>
      <country>
        <code/>
        <name/>
      </country>
      <city>
        <name/>
        <latitude/>
        <longitude/>
      </city>
      <university>
        <name/>
        <department/>
      </university>
    </location>
  </domain>
  <domain>
    <name>ramas.com</name>
    <location>
      <country>
        <code>US</code>
        <name>United States</name>
      </country>
      <city>
        <name>Trumbull</name>
        <latitude>41.259899</latitude>
        <longitude>-73.207603</longitude>
      </city>
      <university>
        <name>NA</name>
        <department>NA</department>
      </university>
    </location>
  </domain>
  <domain>
    <name>cas.cz</name>
    <location>
      <country>
        <code>CZ</code>
        <name>Czech Republic</name>
      </country>
      <city>
        <name>Prague</name>
        <latitude>50.083302</latitude>
        <longitude>14.466700</longitude>
      </city>
      <university>
        <name>NA</name>
        <department>NA</department>
      </university>
    </location>
  </domain>
  <domain>
    <name>mail.ru</name>
    <location>
      <country>
        <code>RU</code>
        <name>Russian Federation</name>
      </country>
      <city>
        <name>N/A</name>
        <latitude>60.000000</latitude>
        <longitude>100.000000</longitude>
      </city>
      <university>
        <name>NA</name>
        <department>NA</department>
      </university>
    </location>
  </domain>
  <domain>
    <name>durham.ac.uk</name>
    <location>
      <country>
        <code>GB</code>
        <name>United Kingdom</name>
      </country>
      <city>
        <name>Durham</name>
        <latitude>54.766701</latitude>
        <longitude>-1.566700</longitude>
      </city>
      <university>
        <name>NA</name>
        <department>NA</department>
      </university>
    </location>
  </domain>
  <domain>
    <name>cmu.edu</name>
    <location>
      <country>
        <code>US</code>
        <name>United States</name>
      </country>
      <city>
        <name>Pittsburgh</name>
        <latitude>40.443901</latitude>
        <longitude>-79.956100</longitude>
      </city>
      <university>
        <name>NA</name>
        <department>NA</department>
      </university>
    </location>
  </domain>
  <domain>
    <name>umontreal.ca</name>
    <location>
      <country>
        <code>CA</code>
        <name>Canada</name>
      </country>
      <city>
        <name>Montreal</name>
        <latitude>45.500000</latitude>
        <longitude>-73.583298</longitude>
      </city>
      <university>
        <name>NA</name>
        <department>NA</department>
      </university>
    </location>
  </domain>
  <domain>
    <name>aut.ac.nz</name>
    <location>
      <country>
        <code>NZ</code>
        <name>New Zealand</name>
      </country>
      <city>
        <name>Auckland</name>
        <latitude>-36.866699</latitude>
        <longitude>174.766693</longitude>
      </city>
      <university>
        <name>NA</name>
        <department>NA</department>
      </university>
    </location>
  </domain>
  <domain>
    <name>ugent.be</name>
    <location>
      <country>
        <code>BE</code>
        <name>Belgium</name>
      </country>
      <city>
        <name>Ghent</name>
        <latitude>51.049999</latitude>
        <longitude>3.716700</longitude>
      </city>
      <university>
        <name>NA</name>
        <department>NA</department>
      </university>
    </location>
  </domain>
  <domain>
    <name>uniovi.es</name>
    <location>
      <country>
        <code>ES</code>
        <name>Spain</name>
      </country>
      <city>
        <name>Oviedo</name>
        <latitude>43.366699</latitude>
        <longitude>-5.833300</longitude>
      </city>
      <university>
        <name>NA</name>
        <department>NA</department>
      </university>
    </location>
  </domain>
  <domain>
    <name>uibk.ac.at</name>
    <location>
      <country>
        <code>AT</code>
        <name>Austria</name>
      </country>
      <city>
        <name>Innsbruck</name>
        <latitude>47.266701</latitude>
        <longitude>11.400000</longitude>
      </city>
      <university>
        <name>NA</name>
        <department>NA</department>
      </university>
    </location>
  </domain>
  <domain>
    <name>unipg.it</name>
    <location>
      <country>
        <code>IT</code>
        <name>Italy</name>
      </country>
      <city>
        <name>Perugia</name>
        <latitude>43.133301</latitude>
        <longitude>12.366700</longitude>
      </city>
      <university>
        <name>NA</name>
        <department>NA</department>
      </university>
    </location>
  </domain>
  <domain>
    <name>uniroma1.it</name>
    <location>
      <country>
        <code>IT</code>
        <name>Italy</name>
      </country>
      <city>
        <name>Rome</name>
        <latitude>41.900002</latitude>
        <longitude>12.483300</longitude>
      </city>
      <university>
        <name>NA</name>
        <department>NA</department>
      </university>
    </location>
  </domain>
  <domain>
    <name>uni-muenchen.de</name>
    <location>
      <country>
        <code>DE</code>
        <name>Germany</name>
      </country>
      <city>
        <name>Munich</name>
        <latitude>48.150002</latitude>
        <longitude>11.583300</longitude>
      </city>
      <university>
        <name>NA</name>
        <department>NA</department>
      </university>
    </location>
  </domain>
  <domain>
    <name>idsia.ch</name>
    <location>
      <country>
        <code>CH</code>
        <name>Switzerland</name>
      </country>
      <city>
        <name>N/A</name>
        <latitude>47.000000</latitude>
        <longitude>8.000000</longitude>
      </city>
      <university>
        <name>NA</name>
        <department>NA</department>
      </university>
    </location>
  </domain>
  <domain>
    <name>hotmail.com</name>
    <location>
      <country>
        <code>US</code>
        <name>United States</name>
      </country>
      <city>
        <name>Redmond</name>
        <latitude>47.680099</latitude>
        <longitude>-122.120598</longitude>
      </city>
      <university>
        <name>NA</name>
        <department>NA</department>
      </university>
    </location>
  </domain>
  <domain>
    <name>hotlink.com.br</name>
    <location>
      <country>
        <code>BR</code>
        <name>Brazil</name>
      </country>
      <city>
        <name>Recife</name>
        <latitude>-8.050000</latitude>
        <longitude>-34.900002</longitude>
      </city>
      <university>
        <name>NA</name>
        <department>NA</department>
      </university>
    </location>
  </domain>
  <domain>
    <name>columbia.edu</name>
    <location>
      <country>
        <code>US</code>
        <name>United States</name>
      </country>
      <city>
        <name>New York</name>
        <latitude>40.800598</latitude>
        <longitude>-73.965302</longitude>
      </city>
      <university>
        <name>NA</name>
        <department>NA</department>
      </university>
    </location>
  </domain>
  <domain>
    <name>ugr.es</name>
    <location>
      <country>
        <code>ES</code>
        <name>Spain</name>
      </country>
      <city>
        <name>Granada</name>
        <latitude>37.183300</latitude>
        <longitude>-3.600000</longitude>
      </city>
      <university>
        <name>NA</name>
        <department>NA</department>
      </university>
    </location>
  </domain>
  <domain>
    <name>brookes.ac.uk</name>
    <location>
      <country>
        <code>GB</code>
        <name>United Kingdom</name>
      </country>
      <city>
        <name>Oxford</name>
        <latitude>51.750000</latitude>
        <longitude>-1.250000</longitude>
      </city>
      <university>
        <name>NA</name>
        <department>NA</department>
      </university>
    </location>
  </domain>
  <domain>
    <name>warwick.ac.uk</name>
    <location>
      <country>
        <code>GB</code>
        <name>United Kingdom</name>
      </country>
      <city>
        <name>Warwick</name>
        <latitude>52.283298</latitude>
        <longitude>-1.583300</longitude>
      </city>
      <university>
        <name>NA</name>
        <department>NA</department>
      </university>
    </location>
  </domain>
  <domain>
    <name>med.uni-muenchen</name>
    <location>
      <country>
        <code/>
        <name/>
      </country>
      <city>
        <name/>
        <latitude/>
        <longitude/>
      </city>
      <university>
        <name/>
        <department/>
      </university>
    </location>
  </domain>
  <domain>
    <name>gov.uk</name>
    <location>
      <country>
        <code/>
        <name/>
      </country>
      <city>
        <name/>
        <latitude/>
        <longitude/>
      </city>
      <university>
        <name/>
        <department/>
      </university>
    </location>
  </domain>
  <domain>
    <name>utt.fr</name>
    <location>
      <country>
        <code>FR</code>
        <name>France</name>
      </country>
      <city>
        <name>Troyes</name>
        <latitude>48.299999</latitude>
        <longitude>4.083300</longitude>
      </city>
      <university>
        <name>NA</name>
        <department>NA</department>
      </university>
    </location>
  </domain>
  <domain>
    <name>edf.fr</name>
    <location>
      <country>
        <code>FR</code>
        <name>France</name>
      </country>
      <city>
        <name>N/A</name>
        <latitude>46.000000</latitude>
        <longitude>2.000000</longitude>
      </city>
      <university>
        <name>NA</name>
        <department>NA</department>
      </university>
    </location>
  </domain>
  <domain>
    <name>hig.se</name>
    <location>
      <country>
        <code>SE</code>
        <name>Sweden</name>
      </country>
      <city>
        <name></name>
        <latitude>60.666698</latitude>
        <longitude>17.166700</longitude>
      </city>
      <university>
        <name>NA</name>
        <department>NA</department>
      </university>
    </location>
  </domain>
  <domain>
    <name>unipa.it</name>
    <location>
      <country>
        <code>IT</code>
        <name>Italy</name>
      </country>
      <city>
        <name>Palermo</name>
        <latitude>38.116699</latitude>
        <longitude>13.366700</longitude>
      </city>
      <university>
        <name>NA</name>
        <department>NA</department>
      </university>
    </location>
  </domain>
  <domain>
    <name>uni-bayreuth.de</name>
    <location>
      <country>
        <code>DE</code>
        <name>Germany</name>
      </country>
      <city>
        <name>Bayreuth</name>
        <latitude>49.948101</latitude>
        <longitude>11.578300</longitude>
      </city>
      <university>
        <name>NA</name>
        <department>NA</department>
      </university>
    </location>
  </domain>
  <domain>
    <name>dtu.dk</name>
    <location>
      <country>
        <code>DK</code>
        <name>Denmark</name>
      </country>
      <city>
        <name>Kongens Lyngby</name>
        <latitude>55.766701</latitude>
        <longitude>12.516700</longitude>
      </city>
      <university>
        <name>NA</name>
        <department>NA</department>
      </university>
    </location>
  </domain>
  <domain>
    <name>org.uk</name>
    <location>
      <country>
        <code>GB</code>
        <name>United Kingdom</name>
      </country>
      <city>
        <name>N/A</name>
        <latitude>54.000000</latitude>
        <longitude>-2.000000</longitude>
      </city>
      <university>
        <name>NA</name>
        <department>NA</department>
      </university>
    </location>
  </domain>
  <domain>
    <name>duke.edu</name>
    <location>
      <country>
        <code>US</code>
        <name>United States</name>
      </country>
      <city>
        <name>Durham</name>
        <latitude>35.995399</latitude>
        <longitude>-78.901901</longitude>
      </city>
      <university>
        <name>NA</name>
        <department>NA</department>
      </university>
    </location>
  </domain>
  <domain>
    <name>ethz.ch</name>
    <location>
      <country>
        <code>CH</code>
        <name>Switzerland</name>
      </country>
      <city>
        <name></name>
        <latitude>47.366699</latitude>
        <longitude>8.550000</longitude>
      </city>
      <university>
        <name>NA</name>
        <department>NA</department>
      </university>
    </location>
  </domain>
</domains>
