<?xml version="1.0"?>
<authors>
  <year>1999</year>
  <author>
    <name>Joaquin Abellan</name>
    <email>jabellan@jet.es</email>
    <location>
      <country>
        <code>ES</code>
        <name>Spain</name>
      </country>
      <city>
        <name>N/A</name>
        <latitude>40.000000</latitude>
        <longitude>-4.000000</longitude>
      </city>
      <university>
        <name>NA</name>
        <department>NA</department>
      </university>
    </location>
  </author>
  <author>
    <name>Serafin Moral</name>
    <email>smc@decsai.ugr.es</email>
    <location>
      <country>
        <code>ES</code>
        <name>Spain</name>
      </country>
      <city>
        <name>Granada</name>
        <latitude>37.183300</latitude>
        <longitude>-3.600000</longitude>
      </city>
      <university>
        <name>NA</name>
        <department>NA</department>
      </university>
    </location>
  </author>
  <author>
    <name>Stefan Arnborg</name>
    <email>stefan@nada.kth.se</email>
    <location>
      <country>
        <code>SE</code>
        <name>Sweden</name>
      </country>
      <city>
        <name>Stockholm</name>
        <latitude>59.333302</latitude>
        <longitude>18.049999</longitude>
      </city>
      <university>
        <name>NA</name>
        <department>NA</department>
      </university>
    </location>
  </author>
  <author>
    <name>Thomas Augustin</name>
    <email>thomas@stat.uni-muenchen.de</email>
    <location>
      <country>
        <code>DE</code>
        <name>Germany</name>
      </country>
      <city>
        <name>Munich</name>
        <latitude>48.150002</latitude>
        <longitude>11.583300</longitude>
      </city>
      <university>
        <name>NA</name>
        <department>NA</department>
      </university>
    </location>
  </author>
  <author>
    <name>Jean-Marc Bernard</name>
    <email>berj@univ-paris8.fr</email>
    <location>
      <country>
        <code>FR</code>
        <name>France</name>
      </country>
      <city>
        <name>Saint-denis</name>
        <latitude>48.933300</latitude>
        <longitude>2.366700</longitude>
      </city>
      <university>
        <name>NA</name>
        <department>NA</department>
      </university>
    </location>
  </author>
  <author>
    <name>Veronica Biazzo</name>
    <email>biazzo@liotro.dipmat.unict.it</email>
    <location>
      <country>
        <code>IT</code>
        <name>Italy</name>
      </country>
      <city>
        <name>Catania</name>
        <latitude>37.500000</latitude>
        <longitude>15.100000</longitude>
      </city>
      <university>
        <name>NA</name>
        <department>NA</department>
      </university>
    </location>
  </author>
  <author>
    <name>Angelo Gilio</name>
    <email>gilio@dipmat.unict.it</email>
    <location>
      <country>
        <code>IT</code>
        <name>Italy</name>
      </country>
      <city>
        <name>Catania</name>
        <latitude>37.500000</latitude>
        <longitude>15.100000</longitude>
      </city>
      <university>
        <name>NA</name>
        <department>NA</department>
      </university>
    </location>
  </author>
  <author>
    <name>Antoine Billot</name>
    <email>billot@u-paris2.fr</email>
    <location>
      <country>
        <code>FR</code>
        <name>France</name>
      </country>
      <city>
        <name>Paris</name>
        <latitude>48.866699</latitude>
        <longitude>2.333300</longitude>
      </city>
      <university>
        <name>NA</name>
        <department>NA</department>
      </university>
    </location>
  </author>
  <author>
    <name>Alain Chateauneuf</name>
    <email>chateaun@univ-paris1.fr</email>
    <location>
      <country>
        <code>FR</code>
        <name>France</name>
      </country>
      <city>
        <name>Paris</name>
        <latitude>48.866699</latitude>
        <longitude>2.333300</longitude>
      </city>
      <university>
        <name>NA</name>
        <department>NA</department>
      </university>
    </location>
  </author>
  <author>
    <name>Itzhak Gilboa</name>
    <email>gilboa@econ.tau.ac.il</email>
    <location>
      <country>
        <code>IL</code>
        <name>Israel</name>
      </country>
      <city>
        <name>Tel Aviv</name>
        <latitude>32.066700</latitude>
        <longitude>34.766701</longitude>
      </city>
      <university>
        <name>NA</name>
        <department>NA</department>
      </university>
    </location>
  </author>
  <author>
    <name>Jean-Marc Tallon</name>
    <email>jmtallon@univ-paris1.fr</email>
    <location>
      <country>
        <code>FR</code>
        <name>France</name>
      </country>
      <city>
        <name>Paris</name>
        <latitude>48.866699</latitude>
        <longitude>2.333300</longitude>
      </city>
      <university>
        <name>NA</name>
        <department>NA</department>
      </university>
    </location>
  </author>
  <author>
    <name>Veselka Boeva</name>
    <email>boevi@mbox.digsys.bg</email>
    <location>
      <country>
        <code>BG</code>
        <name>Bulgaria</name>
      </country>
      <city>
        <name>N/A</name>
        <latitude>43.000000</latitude>
        <longitude>25.000000</longitude>
      </city>
      <university>
        <name>NA</name>
        <department>NA</department>
      </university>
    </location>
  </author>
  <author>
    <name>Elena Tsiporkova</name>
    <email>etsipork@baard.lhs.be</email>
    <location>
      <country>
        <code>DE</code>
        <name>Germany</name>
      </country>
      <city>
        <name>N/A</name>
        <latitude>51.000000</latitude>
        <longitude>9.000000</longitude>
      </city>
      <university>
        <name>NA</name>
        <department>NA</department>
      </university>
    </location>
  </author>
  <author>
    <name>Bernard De Baets</name>
    <email>bernard.debaets@rug.ac.be</email>
    <location>
      <country>
        <code>BE</code>
        <name>Belgium</name>
      </country>
      <city>
        <name>Ghent</name>
        <latitude>51.049999</latitude>
        <longitude>3.716700</longitude>
      </city>
      <university>
        <name>NA</name>
        <department>NA</department>
      </university>
    </location>
  </author>
  <author>
    <name>Andres Cano</name>
    <email>acu@decsai.ugr.es</email>
    <location>
      <country>
        <code>ES</code>
        <name>Spain</name>
      </country>
      <city>
        <name>Granada</name>
        <latitude>37.183300</latitude>
        <longitude>-3.600000</longitude>
      </city>
      <university>
        <name>NA</name>
        <department>NA</department>
      </university>
    </location>
  </author>
  <author>
    <name>Barbara Vantaggi</name>
    <email>vant@stat.unipg.it</email>
    <location>
      <country>
        <code>IT</code>
        <name>Italy</name>
      </country>
      <city>
        <name>Perugia</name>
        <latitude>43.133301</latitude>
        <longitude>12.366700</longitude>
      </city>
      <university>
        <name>NA</name>
        <department>NA</department>
      </university>
    </location>
  </author>
  <author>
    <name>Paola Castellan</name>
    <email>sgarro@univ.trieste.it</email>
    <location>
      <country>
        <code/>
        <name/>
      </country>
      <city>
        <name/>
        <latitude/>
        <longitude/>
      </city>
      <university>
        <name/>
        <department/>
      </university>
    </location>
  </author>
  <author>
    <name>Andrea Sgarro</name>
    <email>sgarro@univ.trieste.it</email>
    <location>
      <country>
        <code/>
        <name/>
      </country>
      <city>
        <name/>
        <latitude/>
        <longitude/>
      </city>
      <university>
        <name/>
        <department/>
      </university>
    </location>
  </author>
  <author>
    <name>Jean-Christophe Vergnaud</name>
    <email>vergnaud@univ-paris1.fr</email>
    <location>
      <country>
        <code>FR</code>
        <name>France</name>
      </country>
      <city>
        <name>Paris</name>
        <latitude>48.866699</latitude>
        <longitude>2.333300</longitude>
      </city>
      <university>
        <name>NA</name>
        <department>NA</department>
      </university>
    </location>
  </author>
  <author>
    <name>Morgane Cheve</name>
    <email>mcheve@ecp.fr</email>
    <location>
      <country>
        <code>FR</code>
        <name>France</name>
      </country>
      <city>
        <name/>
        <latitude>48.766701</latitude>
        <longitude>2.266700</longitude>
      </city>
      <university>
        <name>NA</name>
        <department>NA</department>
      </university>
    </location>
  </author>
  <author>
    <name>Ronan Congar</name>
    <email>rcongar@ecp.fr</email>
    <location>
      <country>
        <code>FR</code>
        <name>France</name>
      </country>
      <city>
        <name/>
        <latitude>48.766701</latitude>
        <longitude>2.266700</longitude>
      </city>
      <university>
        <name>NA</name>
        <department>NA</department>
      </university>
    </location>
  </author>
  <author>
    <name>Michele Cohen</name>
    <email>cohenmd@univ-paris1.fr</email>
    <location>
      <country>
        <code>FR</code>
        <name>France</name>
      </country>
      <city>
        <name>Paris</name>
        <latitude>48.866699</latitude>
        <longitude>2.333300</longitude>
      </city>
      <university>
        <name>NA</name>
        <department>NA</department>
      </university>
    </location>
  </author>
  <author>
    <name>Itzack Gilboa</name>
    <email>gilboa@econ.tau.ac.il</email>
    <location>
      <country>
        <code>IL</code>
        <name>Israel</name>
      </country>
      <city>
        <name>Tel Aviv</name>
        <latitude>32.066700</latitude>
        <longitude>34.766701</longitude>
      </city>
      <university>
        <name>NA</name>
        <department>NA</department>
      </university>
    </location>
  </author>
  <author>
    <name>Jean-Yves Jaffray</name>
    <email>Jean-Yves.Jaffray@lip6.fr</email>
    <location>
      <country>
        <code>FR</code>
        <name>France</name>
      </country>
      <city>
        <name>Paris</name>
        <latitude>48.866699</latitude>
        <longitude>2.333300</longitude>
      </city>
      <university>
        <name>NA</name>
        <department>NA</department>
      </university>
    </location>
  </author>
  <author>
    <name>David Schmeidler</name>
    <email>schmeid@post.tau.ac.il</email>
    <location>
      <country>
        <code>IL</code>
        <name>Israel</name>
      </country>
      <city>
        <name>Tel Aviv</name>
        <latitude>32.066700</latitude>
        <longitude>34.766701</longitude>
      </city>
      <university>
        <name>NA</name>
        <department>NA</department>
      </university>
    </location>
  </author>
  <author>
    <name>Giulianella Coletti</name>
    <email>coletti@dipmat.unipg.it</email>
    <location>
      <country>
        <code>IT</code>
        <name>Italy</name>
      </country>
      <city>
        <name>Perugia</name>
        <latitude>43.133301</latitude>
        <longitude>12.366700</longitude>
      </city>
      <university>
        <name>NA</name>
        <department>NA</department>
      </university>
    </location>
  </author>
  <author>
    <name>Romano Scozzafava</name>
    <email>romscozz@dmmm.uniroma1.it</email>
    <location>
      <country>
        <code>IT</code>
        <name>Italy</name>
      </country>
      <city>
        <name>Rome</name>
        <latitude>41.900002</latitude>
        <longitude>12.483300</longitude>
      </city>
      <university>
        <name>NA</name>
        <department>NA</department>
      </university>
    </location>
  </author>
  <author>
    <name>Gert de Cooman</name>
    <email>gert.decooman@rug.ac.be</email>
    <location>
      <country>
        <code>BE</code>
        <name>Belgium</name>
      </country>
      <city>
        <name>Ghent</name>
        <latitude>51.049999</latitude>
        <longitude>3.716700</longitude>
      </city>
      <university>
        <name>NA</name>
        <department>NA</department>
      </university>
    </location>
  </author>
  <author>
    <name>Ines Couso</name>
    <email>couso@pinon.ccu.uniovi.es</email>
    <location>
      <country>
        <code>ES</code>
        <name>Spain</name>
      </country>
      <city>
        <name>Oviedo</name>
        <latitude>43.366699</latitude>
        <longitude>-5.833300</longitude>
      </city>
      <university>
        <name>NA</name>
        <department>NA</department>
      </university>
    </location>
  </author>
  <author>
    <name>Peter Walley</name>
    <email>walley@usp.br</email>
    <location>
      <country>
        <code>BR</code>
        <name>Brazil</name>
      </country>
      <city>
        <name/>
        <latitude>-23.533300</latitude>
        <longitude>-46.616699</longitude>
      </city>
      <university>
        <name>NA</name>
        <department>NA</department>
      </university>
    </location>
  </author>
  <author>
    <name>Fabio Gagliardi Cozman</name>
    <email>fgcozman@usp.br</email>
    <location>
      <country>
        <code>BR</code>
        <name>Brazil</name>
      </country>
      <city>
        <name/>
        <latitude>-23.533300</latitude>
        <longitude>-46.616699</longitude>
      </city>
      <university>
        <name>NA</name>
        <department>NA</department>
      </university>
    </location>
  </author>
  <author>
    <name>Dieter Denneberg</name>
    <email>denneberg@math.uni-bremen.de</email>
    <location>
      <country>
        <code>DE</code>
        <name>Germany</name>
      </country>
      <city>
        <name>Bremen</name>
        <latitude>53.083302</latitude>
        <longitude>8.800000</longitude>
      </city>
      <university>
        <name>NA</name>
        <department>NA</department>
      </university>
    </location>
  </author>
  <author>
    <name>Thomas Fetz</name>
    <email>fetz@mat1.uibk.ac.at</email>
    <location>
      <country>
        <code>AT</code>
        <name>Austria</name>
      </country>
      <city>
        <name>Innsbruck</name>
        <latitude>47.266701</latitude>
        <longitude>11.400000</longitude>
      </city>
      <university>
        <name>NA</name>
        <department>NA</department>
      </university>
    </location>
  </author>
  <author>
    <name>Michael Oberguggenberger</name>
    <email>michael@mat1.uibk.ac.at</email>
    <location>
      <country>
        <code>AT</code>
        <name>Austria</name>
      </country>
      <city>
        <name>Innsbruck</name>
        <latitude>47.266701</latitude>
        <longitude>11.400000</longitude>
      </city>
      <university>
        <name>NA</name>
        <department>NA</department>
      </university>
    </location>
  </author>
  <author>
    <name>Simon Pittschmann</name>
    <email>simon@mat1.uibk.ac.at</email>
    <location>
      <country>
        <code>AT</code>
        <name>Austria</name>
      </country>
      <city>
        <name>Innsbruck</name>
        <latitude>47.266701</latitude>
        <longitude>11.400000</longitude>
      </city>
      <university>
        <name>NA</name>
        <department>NA</department>
      </university>
    </location>
  </author>
  <author>
    <name>Paolo Ghirardato</name>
    <email>paolo@hss.caltech.edu</email>
    <location>
      <country>
        <code>US</code>
        <name>United States</name>
      </country>
      <city>
        <name>Pasadena</name>
        <latitude>33.786598</latitude>
        <longitude>-118.298698</longitude>
      </city>
      <university>
        <name>NA</name>
        <department>NA</department>
      </university>
    </location>
  </author>
  <author>
    <name>Massimo Marinacci</name>
    <email>marinacc@economia.unibo.it</email>
    <location>
      <country>
        <code>IT</code>
        <name>Italy</name>
      </country>
      <city>
        <name>Bologna</name>
        <latitude>44.483299</latitude>
        <longitude>11.333300</longitude>
      </city>
      <university>
        <name>NA</name>
        <department>NA</department>
      </university>
    </location>
  </author>
  <author>
    <name>Michel Grabisch</name>
    <email>michel.grabisch@lcr.thomson-csf.com</email>
    <location>
      <country>
        <code>FR</code>
        <name>France</name>
      </country>
      <city>
        <name>Le Chesnay</name>
        <latitude>48.833302</latitude>
        <longitude>2.116700</longitude>
      </city>
      <university>
        <name>NA</name>
        <department>NA</department>
      </university>
    </location>
  </author>
  <author>
    <name>Pierre Hansen</name>
    <email>pierreh@crt.umontreal.ca</email>
    <location>
      <country>
        <code>CA</code>
        <name>Canada</name>
      </country>
      <city>
        <name>Montreal</name>
        <latitude>45.500000</latitude>
        <longitude>-73.583298</longitude>
      </city>
      <university>
        <name>NA</name>
        <department>NA</department>
      </university>
    </location>
  </author>
  <author>
    <name>Brigitte Jaumard</name>
    <email>brigitt@crt.umontreal.ca</email>
    <location>
      <country>
        <code>CA</code>
        <name>Canada</name>
      </country>
      <city>
        <name>Montreal</name>
        <latitude>45.500000</latitude>
        <longitude>-73.583298</longitude>
      </city>
      <university>
        <name>NA</name>
        <department>NA</department>
      </university>
    </location>
  </author>
  <author>
    <name>Marcus Poggi de Arag&#xE3;o</name>
    <email>poggi@inf.puc-rio.br</email>
    <location>
      <country>
        <code>BR</code>
        <name>Brazil</name>
      </country>
      <city>
        <name>Rio De Janeiro</name>
        <latitude>-22.900000</latitude>
        <longitude>-43.233299</longitude>
      </city>
      <university>
        <name>NA</name>
        <department>NA</department>
      </university>
    </location>
  </author>
  <author>
    <name>Fabien Chauny</name>
    <email>fabien@crt.umontreal.ca</email>
    <location>
      <country>
        <code>CA</code>
        <name>Canada</name>
      </country>
      <city>
        <name>Montreal</name>
        <latitude>45.500000</latitude>
        <longitude>-73.583298</longitude>
      </city>
      <university>
        <name>NA</name>
        <department>NA</department>
      </university>
    </location>
  </author>
  <author>
    <name>Sylvain Perron</name>
    <email>sylvain@crt.umontreal.ca</email>
    <location>
      <country>
        <code>CA</code>
        <name>Canada</name>
      </country>
      <city>
        <name>Montreal</name>
        <latitude>45.500000</latitude>
        <longitude>-73.583298</longitude>
      </city>
      <university>
        <name>NA</name>
        <department>NA</department>
      </university>
    </location>
  </author>
  <author>
    <name>David Harmanec</name>
    <email>davidh@comp.nus.edu.sg</email>
    <location>
      <country>
        <code/>
        <name/>
      </country>
      <city>
        <name/>
        <latitude/>
        <longitude/>
      </city>
      <university>
        <name/>
        <department/>
      </university>
    </location>
  </author>
  <author>
    <name>Hugo J. Janssen</name>
    <email>hugo.janssen@rug.ac.be</email>
    <location>
      <country>
        <code>BE</code>
        <name>Belgium</name>
      </country>
      <city>
        <name>Ghent</name>
        <latitude>51.049999</latitude>
        <longitude>3.716700</longitude>
      </city>
      <university>
        <name>NA</name>
        <department>NA</department>
      </university>
    </location>
  </author>
  <author>
    <name>Etienne E. Kerre</name>
    <email>etienne.kerre@rug.ac.be</email>
    <location>
      <country>
        <code>BE</code>
        <name>Belgium</name>
      </country>
      <city>
        <name>Ghent</name>
        <latitude>51.049999</latitude>
        <longitude>3.716700</longitude>
      </city>
      <university>
        <name>NA</name>
        <department>NA</department>
      </university>
    </location>
  </author>
  <author>
    <name>Meglena   Jeleva</name>
    <email>jeleva@ensae.fr</email>
    <location>
      <country>
        <code>FR</code>
        <name>France</name>
      </country>
      <city>
        <name>Paris</name>
        <latitude>48.866699</latitude>
        <longitude>2.333300</longitude>
      </city>
      <university>
        <name>NA</name>
        <department>NA</department>
      </university>
    </location>
  </author>
  <author>
    <name>Cliff Joslyn</name>
    <email>joslyn@lanl.gov</email>
    <location>
      <country>
        <code>US</code>
        <name>United States</name>
      </country>
      <city>
        <name>Los Alamos</name>
        <latitude>35.863899</latitude>
        <longitude>-106.295303</longitude>
      </city>
      <university>
        <name>NA</name>
        <department>NA</department>
      </university>
    </location>
  </author>
  <author>
    <name>Joseph B. Kadane</name>
    <email>none</email>
  </author>
  <author>
    <name>Elias Moreno</name>
    <email>emoreno@ugr.es</email>
    <location>
      <country>
        <code>ES</code>
        <name>Spain</name>
      </country>
      <city>
        <name>Granada</name>
        <latitude>37.183300</latitude>
        <longitude>-3.600000</longitude>
      </city>
      <university>
        <name>NA</name>
        <department>NA</department>
      </university>
    </location>
  </author>
  <author>
    <name>Maria Eglee Perez</name>
    <email>none</email>
  </author>
  <author>
    <name>Luis Raul Pericchi</name>
    <email>pericchi@cesma.usb.ve</email>
    <location>
      <country>
        <code>VE</code>
        <name>Venezuela</name>
      </country>
      <city>
        <name>Caracas</name>
        <latitude>10.500000</latitude>
        <longitude>-66.916702</longitude>
      </city>
      <university>
        <name>NA</name>
        <department>NA</department>
      </university>
    </location>
  </author>
  <author>
    <name>John Kenney</name>
    <email>keney@ee.byu.edu,</email>
    <location>
      <country>
        <code/>
        <name/>
      </country>
      <city>
        <name/>
        <latitude/>
        <longitude/>
      </city>
      <university>
        <name/>
        <department/>
      </university>
    </location>
  </author>
  <author>
    <name>Wynn Stirling</name>
    <email>NA</email>
  </author>
  <author>
    <name>George J. Klir</name>
    <email>gklir@binghamton.edu</email>
    <location>
      <country>
        <code>US</code>
        <name>United States</name>
      </country>
      <city>
        <name>Binghamton</name>
        <latitude>42.139301</latitude>
        <longitude>-75.879799</longitude>
      </city>
      <university>
        <name>NA</name>
        <department>NA</department>
      </university>
    </location>
  </author>
  <author>
    <name>Igor Kozine</name>
    <email>ikozine@binghamton.edu</email>
    <location>
      <country>
        <code>US</code>
        <name>United States</name>
      </country>
      <city>
        <name>Binghamton</name>
        <latitude>42.139301</latitude>
        <longitude>-75.879799</longitude>
      </city>
      <university>
        <name>NA</name>
        <department>NA</department>
      </university>
    </location>
  </author>
  <author>
    <name>Karen M. Kramer</name>
    <email>kkramer@uiuc.edu</email>
    <location>
      <country>
        <code>US</code>
        <name>United States</name>
      </country>
      <city>
        <name>Urbana</name>
        <latitude>40.109501</latitude>
        <longitude>-88.212303</longitude>
      </city>
      <university>
        <name>NA</name>
        <department>NA</department>
      </university>
    </location>
  </author>
  <author>
    <name>David V. Budescu</name>
    <email>dbudescu@uiuc.edu</email>
    <location>
      <country>
        <code>US</code>
        <name>United States</name>
      </country>
      <city>
        <name>Urbana</name>
        <latitude>40.109501</latitude>
        <longitude>-88.212303</longitude>
      </city>
      <university>
        <name>NA</name>
        <department>NA</department>
      </university>
    </location>
  </author>
  <author>
    <name>Isaac Levi</name>
    <email>levi@columbia.edu</email>
    <location>
      <country>
        <code>US</code>
        <name>United States</name>
      </country>
      <city>
        <name>New York</name>
        <latitude>40.800598</latitude>
        <longitude>-73.965302</longitude>
      </city>
      <university>
        <name>NA</name>
        <department>NA</department>
      </university>
    </location>
  </author>
  <author>
    <name>Charles F. Manski</name>
    <email>cfmanski@nwu.edu</email>
    <location>
      <country>
        <code/>
        <name/>
      </country>
      <city>
        <name/>
        <latitude/>
        <longitude/>
      </city>
      <university>
        <name/>
        <department/>
      </university>
    </location>
  </author>
  <author>
    <name>Sujoy Mukerji</name>
    <email>sm5@soton.ac.uk</email>
    <location>
      <country>
        <code>GB</code>
        <name>United Kingdom</name>
      </country>
      <city>
        <name>Southampton</name>
        <latitude>50.900002</latitude>
        <longitude>-1.400000</longitude>
      </city>
      <university>
        <name>NA</name>
        <department>NA</department>
      </university>
    </location>
  </author>
  <author>
    <name>Robert F. Nau</name>
    <email>robert.nau@duke.edu</email>
    <location>
      <country>
        <code>US</code>
        <name>United States</name>
      </country>
      <city>
        <name>Durham</name>
        <latitude>35.995399</latitude>
        <longitude>-78.901901</longitude>
      </city>
      <university>
        <name>NA</name>
        <department>NA</department>
      </university>
    </location>
  </author>
  <author>
    <name>Klaus Nehring</name>
    <email>kdnehring@ucdavis.edu</email>
    <location>
      <country>
        <code>US</code>
        <name>United States</name>
      </country>
      <city>
        <name>Davis</name>
        <latitude>38.482899</latitude>
        <longitude>-121.639801</longitude>
      </city>
      <university>
        <name>NA</name>
        <department>NA</department>
      </university>
    </location>
  </author>
  <author>
    <name>Jeff Paris</name>
    <email>jeff@ma.man.ac.uk</email>
    <location>
      <country>
        <code>GB</code>
        <name>United Kingdom</name>
      </country>
      <city>
        <name>Manchester</name>
        <latitude>53.500000</latitude>
        <longitude>-2.216700</longitude>
      </city>
      <university>
        <name>NA</name>
        <department>NA</department>
      </university>
    </location>
  </author>
  <author>
    <name>P.N.Watton</name>
    <email>none</email>
  </author>
  <author>
    <name>George Wilmers</name>
    <email>george@ma.man.ac.uk</email>
    <location>
      <country>
        <code>GB</code>
        <name>United Kingdom</name>
      </country>
      <city>
        <name>Manchester</name>
        <latitude>53.500000</latitude>
        <longitude>-2.216700</longitude>
      </city>
      <university>
        <name>NA</name>
        <department>NA</department>
      </university>
    </location>
  </author>
  <author>
    <name>Fernando Reche</name>
    <email>freche@stat.ualm.es</email>
    <location>
      <country>
        <code>DE</code>
        <name>Germany</name>
      </country>
      <city>
        <name>Pixel</name>
        <latitude>51.900002</latitude>
        <longitude>8.283300</longitude>
      </city>
      <university>
        <name>NA</name>
        <department>NA</department>
      </university>
    </location>
  </author>
  <author>
    <name>Antonio Salmer&#xF3;n</name>
    <email>asc@stat.ualm.es</email>
    <location>
      <country>
        <code>DE</code>
        <name>Germany</name>
      </country>
      <city>
        <name>Pixel</name>
        <latitude>51.900002</latitude>
        <longitude>8.283300</longitude>
      </city>
      <university>
        <name>NA</name>
        <department>NA</department>
      </university>
    </location>
  </author>
  <author>
    <name>Mark J. Schervish</name>
    <email>mark@stat.cmu.edu</email>
    <location>
      <country>
        <code>US</code>
        <name>United States</name>
      </country>
      <city>
        <name>Pittsburgh</name>
        <latitude>40.443901</latitude>
        <longitude>-79.956100</longitude>
      </city>
      <university>
        <name>NA</name>
        <department>NA</department>
      </university>
    </location>
  </author>
  <author>
    <name>Teddy Seidenfeld</name>
    <email>teddy@stat.cmu.edu</email>
    <location>
      <country>
        <code>US</code>
        <name>United States</name>
      </country>
      <city>
        <name>Pittsburgh</name>
        <latitude>40.443901</latitude>
        <longitude>-79.956100</longitude>
      </city>
      <university>
        <name>NA</name>
        <department>NA</department>
      </university>
    </location>
  </author>
  <author>
    <name>Michael Smithson</name>
    <email>Michael.Smithson@anu.edu.au</email>
    <location>
      <country>
        <code/>
        <name/>
      </country>
      <city>
        <name/>
        <latitude/>
        <longitude/>
      </city>
      <university>
        <name/>
        <department/>
      </university>
    </location>
  </author>
  <author>
    <name>Thomas Bartos</name>
    <email>Thomas.Bartos@anu.edu.au</email>
    <location>
      <country>
        <code/>
        <name/>
      </country>
      <city>
        <name/>
        <latitude/>
        <longitude/>
      </city>
      <university>
        <name/>
        <department/>
      </university>
    </location>
  </author>
  <author>
    <name>KazuhisaTakemura</name>
    <email>takemura@shako.sk.tsukuba.ac.jp</email>
    <location>
      <country>
        <code>JP</code>
        <name>Japan</name>
      </country>
      <city>
        <name>Tsukuba</name>
        <latitude>36.083302</latitude>
        <longitude>140.116699</longitude>
      </city>
      <university>
        <name>NA</name>
        <department>NA</department>
      </university>
    </location>
  </author>
  <author>
    <name>Lev V. Utkin</name>
    <email>lvu@utkin.usr.etu.spb.ru</email>
    <location>
      <country>
        <code>RU</code>
        <name>Russian Federation</name>
      </country>
      <city>
        <name>N/A</name>
        <latitude>60.000000</latitude>
        <longitude>100.000000</longitude>
      </city>
      <university>
        <name>NA</name>
        <department>NA</department>
      </university>
    </location>
  </author>
  <author>
    <name>Sergey V. Gurov</name>
    <email>kir@inf.fta.spb.ru</email>
    <location>
      <country>
        <code>RU</code>
        <name>Russian Federation</name>
      </country>
      <city>
        <name>N/A</name>
        <latitude>60.000000</latitude>
        <longitude>100.000000</longitude>
      </city>
      <university>
        <name>NA</name>
        <department>NA</department>
      </university>
    </location>
  </author>
  <author>
    <name>Jioina Vejnarova</name>
    <email>vejnar@vse.cz</email>
    <location>
      <country>
        <code>CZ</code>
        <name>Czech Republic</name>
      </country>
      <city>
        <name>Prague</name>
        <latitude>50.083302</latitude>
        <longitude>14.466700</longitude>
      </city>
      <university>
        <name>NA</name>
        <department>NA</department>
      </university>
    </location>
  </author>
  <author>
    <name>Paolo Vicig</name>
    <email>paolov@econ.univ.trieste.it</email>
    <location>
      <country>
        <code/>
        <name/>
      </country>
      <city>
        <name/>
        <latitude/>
        <longitude/>
      </city>
      <university>
        <name/>
        <department/>
      </university>
    </location>
  </author>
  <author>
    <name>Frans Voorbraak</name>
    <email>fransv@wins.uva.nl</email>
    <location>
      <country>
        <code>NL</code>
        <name>Netherlands</name>
      </country>
      <city>
        <name>Amsterdam</name>
        <latitude>52.349998</latitude>
        <longitude>4.916700</longitude>
      </city>
      <university>
        <name>NA</name>
        <department>NA</department>
      </university>
    </location>
  </author>
  <author>
    <name>Peter P. Wakker</name>
    <email>Wakker@MDM.MedFac.LeidenUniv.nl</email>
    <location>
      <country>
        <code>NL</code>
        <name>Netherlands</name>
      </country>
      <city>
        <name>Leiden</name>
        <latitude>52.150002</latitude>
        <longitude>4.500000</longitude>
      </city>
      <university>
        <name>NA</name>
        <department>NA</department>
      </university>
    </location>
  </author>
  <author>
    <name>Kurt Weichselberger</name>
    <email>weichsel@stat.uni-muenchen.de</email>
    <location>
      <country>
        <code>DE</code>
        <name>Germany</name>
      </country>
      <city>
        <name>Munich</name>
        <latitude>48.150002</latitude>
        <longitude>11.583300</longitude>
      </city>
      <university>
        <name>NA</name>
        <department>NA</department>
      </university>
    </location>
  </author>
  <author>
    <name>Nic Wilson</name>
    <email>pnwilson@brookes.ac.uk</email>
    <location>
      <country>
        <code>GB</code>
        <name>United Kingdom</name>
      </country>
      <city>
        <name>Oxford</name>
        <latitude>51.750000</latitude>
        <longitude>-1.250000</longitude>
      </city>
      <university>
        <name>NA</name>
        <department>NA</department>
      </university>
    </location>
  </author>
  <author>
    <name>Marco Zaffalon</name>
    <email>zaffalon@idsia.ch</email>
    <location>
      <country>
        <code>CH</code>
        <name>Switzerland</name>
      </country>
      <city>
        <name>N/A</name>
        <latitude>47.000000</latitude>
        <longitude>8.000000</longitude>
      </city>
      <university>
        <name>NA</name>
        <department>NA</department>
      </university>
    </location>
  </author>
</authors>
