<?xml version="1.0"?>
<domains>
  <domain>
    <name>jet.es</name>
    <location>
      <country>
        <code>ES</code>
        <name>Spain</name>
      </country>
      <city>
        <name>N/A</name>
        <latitude>40.000000</latitude>
        <longitude>-4.000000</longitude>
      </city>
      <university>
        <name>NA</name>
        <department>NA</department>
      </university>
    </location>
  </domain>
  <domain>
    <name>ugr.es</name>
    <location>
      <country>
        <code>ES</code>
        <name>Spain</name>
      </country>
      <city>
        <name>Granada</name>
        <latitude>37.183300</latitude>
        <longitude>-3.600000</longitude>
      </city>
      <university>
        <name>NA</name>
        <department>NA</department>
      </university>
    </location>
  </domain>
  <domain>
    <name>kth.se</name>
    <location>
      <country>
        <code>SE</code>
        <name>Sweden</name>
      </country>
      <city>
        <name>Stockholm</name>
        <latitude>59.333302</latitude>
        <longitude>18.049999</longitude>
      </city>
      <university>
        <name>NA</name>
        <department>NA</department>
      </university>
    </location>
  </domain>
  <domain>
    <name>uni-muenchen.de</name>
    <location>
      <country>
        <code>DE</code>
        <name>Germany</name>
      </country>
      <city>
        <name>Munich</name>
        <latitude>48.150002</latitude>
        <longitude>11.583300</longitude>
      </city>
      <university>
        <name>NA</name>
        <department>NA</department>
      </university>
    </location>
  </domain>
  <domain>
    <name>univ-paris8.fr</name>
    <location>
      <country>
        <code>FR</code>
        <name>France</name>
      </country>
      <city>
        <name>Saint-denis</name>
        <latitude>48.933300</latitude>
        <longitude>2.366700</longitude>
      </city>
      <university>
        <name>NA</name>
        <department>NA</department>
      </university>
    </location>
  </domain>
  <domain>
    <name>unict.it</name>
    <location>
      <country>
        <code>IT</code>
        <name>Italy</name>
      </country>
      <city>
        <name>Catania</name>
        <latitude>37.500000</latitude>
        <longitude>15.100000</longitude>
      </city>
      <university>
        <name>NA</name>
        <department>NA</department>
      </university>
    </location>
  </domain>
  <domain>
    <name>u-paris2.fr</name>
    <location>
      <country>
        <code>FR</code>
        <name>France</name>
      </country>
      <city>
        <name>Paris</name>
        <latitude>48.866699</latitude>
        <longitude>2.333300</longitude>
      </city>
      <university>
        <name>NA</name>
        <department>NA</department>
      </university>
    </location>
  </domain>
  <domain>
    <name>univ-paris1.fr</name>
    <location>
      <country>
        <code>FR</code>
        <name>France</name>
      </country>
      <city>
        <name>Paris</name>
        <latitude>48.866699</latitude>
        <longitude>2.333300</longitude>
      </city>
      <university>
        <name>NA</name>
        <department>NA</department>
      </university>
    </location>
  </domain>
  <domain>
    <name>tau.ac.il</name>
    <location>
      <country>
        <code>IL</code>
        <name>Israel</name>
      </country>
      <city>
        <name>Tel Aviv</name>
        <latitude>32.066700</latitude>
        <longitude>34.766701</longitude>
      </city>
      <university>
        <name>NA</name>
        <department>NA</department>
      </university>
    </location>
  </domain>
  <domain>
    <name>digsys.bg</name>
    <location>
      <country>
        <code>BG</code>
        <name>Bulgaria</name>
      </country>
      <city>
        <name>N/A</name>
        <latitude>43.000000</latitude>
        <longitude>25.000000</longitude>
      </city>
      <university>
        <name>NA</name>
        <department>NA</department>
      </university>
    </location>
  </domain>
  <domain>
    <name>lhs.be</name>
    <location>
      <country>
        <code>DE</code>
        <name>Germany</name>
      </country>
      <city>
        <name>N/A</name>
        <latitude>51.000000</latitude>
        <longitude>9.000000</longitude>
      </city>
      <university>
        <name>NA</name>
        <department>NA</department>
      </university>
    </location>
  </domain>
  <domain>
    <name>rug.ac.be</name>
    <location>
      <country>
        <code>BE</code>
        <name>Belgium</name>
      </country>
      <city>
        <name>Ghent</name>
        <latitude>51.049999</latitude>
        <longitude>3.716700</longitude>
      </city>
      <university>
        <name>NA</name>
        <department>NA</department>
      </university>
    </location>
  </domain>
  <domain>
    <name>unipg.it</name>
    <location>
      <country>
        <code>IT</code>
        <name>Italy</name>
      </country>
      <city>
        <name>Perugia</name>
        <latitude>43.133301</latitude>
        <longitude>12.366700</longitude>
      </city>
      <university>
        <name>NA</name>
        <department>NA</department>
      </university>
    </location>
  </domain>
  <domain>
    <name>trieste.it</name>
    <location>
      <country>
        <code/>
        <name/>
      </country>
      <city>
        <name/>
        <latitude/>
        <longitude/>
      </city>
      <university>
        <name/>
        <department/>
      </university>
    </location>
  </domain>
  <domain>
    <name>ecp.fr</name>
    <location>
      <country>
        <code>FR</code>
        <name>France</name>
      </country>
      <city>
        <name></name>
        <latitude>48.766701</latitude>
        <longitude>2.266700</longitude>
      </city>
      <university>
        <name>NA</name>
        <department>NA</department>
      </university>
    </location>
  </domain>
  <domain>
    <name>lip6.fr</name>
    <location>
      <country>
        <code>FR</code>
        <name>France</name>
      </country>
      <city>
        <name>Paris</name>
        <latitude>48.866699</latitude>
        <longitude>2.333300</longitude>
      </city>
      <university>
        <name>NA</name>
        <department>NA</department>
      </university>
    </location>
  </domain>
  <domain>
    <name>uniroma1.it</name>
    <location>
      <country>
        <code>IT</code>
        <name>Italy</name>
      </country>
      <city>
        <name>Rome</name>
        <latitude>41.900002</latitude>
        <longitude>12.483300</longitude>
      </city>
      <university>
        <name>NA</name>
        <department>NA</department>
      </university>
    </location>
  </domain>
  <domain>
    <name>uniovi.es</name>
    <location>
      <country>
        <code>ES</code>
        <name>Spain</name>
      </country>
      <city>
        <name>Oviedo</name>
        <latitude>43.366699</latitude>
        <longitude>-5.833300</longitude>
      </city>
      <university>
        <name>NA</name>
        <department>NA</department>
      </university>
    </location>
  </domain>
  <domain>
    <name>usp.br</name>
    <location>
      <country>
        <code>BR</code>
        <name>Brazil</name>
      </country>
      <city>
        <name></name>
        <latitude>-23.533300</latitude>
        <longitude>-46.616699</longitude>
      </city>
      <university>
        <name>NA</name>
        <department>NA</department>
      </university>
    </location>
  </domain>
  <domain>
    <name>uni-bremen.de</name>
    <location>
      <country>
        <code>DE</code>
        <name>Germany</name>
      </country>
      <city>
        <name>Bremen</name>
        <latitude>53.083302</latitude>
        <longitude>8.800000</longitude>
      </city>
      <university>
        <name>NA</name>
        <department>NA</department>
      </university>
    </location>
  </domain>
  <domain>
    <name>uibk.ac.at</name>
    <location>
      <country>
        <code>AT</code>
        <name>Austria</name>
      </country>
      <city>
        <name>Innsbruck</name>
        <latitude>47.266701</latitude>
        <longitude>11.400000</longitude>
      </city>
      <university>
        <name>NA</name>
        <department>NA</department>
      </university>
    </location>
  </domain>
  <domain>
    <name>caltech.edu</name>
    <location>
      <country>
        <code>US</code>
        <name>United States</name>
      </country>
      <city>
        <name>Pasadena</name>
        <latitude>33.786598</latitude>
        <longitude>-118.298698</longitude>
      </city>
      <university>
        <name>NA</name>
        <department>NA</department>
      </university>
    </location>
  </domain>
  <domain>
    <name>unibo.it</name>
    <location>
      <country>
        <code>IT</code>
        <name>Italy</name>
      </country>
      <city>
        <name>Bologna</name>
        <latitude>44.483299</latitude>
        <longitude>11.333300</longitude>
      </city>
      <university>
        <name>NA</name>
        <department>NA</department>
      </university>
    </location>
  </domain>
  <domain>
    <name>thomson-csf.com</name>
    <location>
      <country>
        <code>FR</code>
        <name>France</name>
      </country>
      <city>
        <name>Le Chesnay</name>
        <latitude>48.833302</latitude>
        <longitude>2.116700</longitude>
      </city>
      <university>
        <name>NA</name>
        <department>NA</department>
      </university>
    </location>
  </domain>
  <domain>
    <name>umontreal.ca</name>
    <location>
      <country>
        <code>CA</code>
        <name>Canada</name>
      </country>
      <city>
        <name>Montreal</name>
        <latitude>45.500000</latitude>
        <longitude>-73.583298</longitude>
      </city>
      <university>
        <name>NA</name>
        <department>NA</department>
      </university>
    </location>
  </domain>
  <domain>
    <name>puc-rio.br</name>
    <location>
      <country>
        <code>BR</code>
        <name>Brazil</name>
      </country>
      <city>
        <name>Rio De Janeiro</name>
        <latitude>-22.900000</latitude>
        <longitude>-43.233299</longitude>
      </city>
      <university>
        <name>NA</name>
        <department>NA</department>
      </university>
    </location>
  </domain>
  <domain>
    <name>edu.sg</name>
    <location>
      <country>
        <code/>
        <name/>
      </country>
      <city>
        <name/>
        <latitude/>
        <longitude/>
      </city>
      <university>
        <name/>
        <department/>
      </university>
    </location>
  </domain>
  <domain>
    <name>ensae.fr</name>
    <location>
      <country>
        <code>FR</code>
        <name>France</name>
      </country>
      <city>
        <name>Paris</name>
        <latitude>48.866699</latitude>
        <longitude>2.333300</longitude>
      </city>
      <university>
        <name>NA</name>
        <department>NA</department>
      </university>
    </location>
  </domain>
  <domain>
    <name>lanl.gov</name>
    <location>
      <country>
        <code>US</code>
        <name>United States</name>
      </country>
      <city>
        <name>Los Alamos</name>
        <latitude>35.863899</latitude>
        <longitude>-106.295303</longitude>
      </city>
      <university>
        <name>NA</name>
        <department>NA</department>
      </university>
    </location>
  </domain>
  <domain>
    <name>usb.ve</name>
    <location>
      <country>
        <code>VE</code>
        <name>Venezuela</name>
      </country>
      <city>
        <name>Caracas</name>
        <latitude>10.500000</latitude>
        <longitude>-66.916702</longitude>
      </city>
      <university>
        <name>NA</name>
        <department>NA</department>
      </university>
    </location>
  </domain>
  <domain>
    <name>byu.edu, wynn</name>
    <location>
      <country>
        <code/>
        <name/>
      </country>
      <city>
        <name/>
        <latitude/>
        <longitude/>
      </city>
      <university>
        <name/>
        <department/>
      </university>
    </location>
  </domain>
  <domain>
    <name>binghamton.edu</name>
    <location>
      <country>
        <code>US</code>
        <name>United States</name>
      </country>
      <city>
        <name>Binghamton</name>
        <latitude>42.139301</latitude>
        <longitude>-75.879799</longitude>
      </city>
      <university>
        <name>NA</name>
        <department>NA</department>
      </university>
    </location>
  </domain>
  <domain>
    <name>uiuc.edu</name>
    <location>
      <country>
        <code>US</code>
        <name>United States</name>
      </country>
      <city>
        <name>Urbana</name>
        <latitude>40.109501</latitude>
        <longitude>-88.212303</longitude>
      </city>
      <university>
        <name>NA</name>
        <department>NA</department>
      </university>
    </location>
  </domain>
  <domain>
    <name>columbia.edu</name>
    <location>
      <country>
        <code>US</code>
        <name>United States</name>
      </country>
      <city>
        <name>New York</name>
        <latitude>40.800598</latitude>
        <longitude>-73.965302</longitude>
      </city>
      <university>
        <name>NA</name>
        <department>NA</department>
      </university>
    </location>
  </domain>
  <domain>
    <name>nwu.edu</name>
    <location>
      <country>
        <code/>
        <name/>
      </country>
      <city>
        <name/>
        <latitude/>
        <longitude/>
      </city>
      <university>
        <name/>
        <department/>
      </university>
    </location>
  </domain>
  <domain>
    <name>soton.ac.uk</name>
    <location>
      <country>
        <code>GB</code>
        <name>United Kingdom</name>
      </country>
      <city>
        <name>Southampton</name>
        <latitude>50.900002</latitude>
        <longitude>-1.400000</longitude>
      </city>
      <university>
        <name>NA</name>
        <department>NA</department>
      </university>
    </location>
  </domain>
  <domain>
    <name>duke.edu</name>
    <location>
      <country>
        <code>US</code>
        <name>United States</name>
      </country>
      <city>
        <name>Durham</name>
        <latitude>35.995399</latitude>
        <longitude>-78.901901</longitude>
      </city>
      <university>
        <name>NA</name>
        <department>NA</department>
      </university>
    </location>
  </domain>
  <domain>
    <name>ucdavis.edu</name>
    <location>
      <country>
        <code>US</code>
        <name>United States</name>
      </country>
      <city>
        <name>Davis</name>
        <latitude>38.482899</latitude>
        <longitude>-121.639801</longitude>
      </city>
      <university>
        <name>NA</name>
        <department>NA</department>
      </university>
    </location>
  </domain>
  <domain>
    <name>man.ac.uk</name>
    <location>
      <country>
        <code>GB</code>
        <name>United Kingdom</name>
      </country>
      <city>
        <name>Manchester</name>
        <latitude>53.500000</latitude>
        <longitude>-2.216700</longitude>
      </city>
      <university>
        <name>NA</name>
        <department>NA</department>
      </university>
    </location>
  </domain>
  <domain>
    <name>ualm.es</name>
    <location>
      <country>
        <code>DE</code>
        <name>Germany</name>
      </country>
      <city>
        <name>Pixel</name>
        <latitude>51.900002</latitude>
        <longitude>8.283300</longitude>
      </city>
      <university>
        <name>NA</name>
        <department>NA</department>
      </university>
    </location>
  </domain>
  <domain>
    <name>cmu.edu</name>
    <location>
      <country>
        <code>US</code>
        <name>United States</name>
      </country>
      <city>
        <name>Pittsburgh</name>
        <latitude>40.443901</latitude>
        <longitude>-79.956100</longitude>
      </city>
      <university>
        <name>NA</name>
        <department>NA</department>
      </university>
    </location>
  </domain>
  <domain>
    <name>edu.au</name>
    <location>
      <country>
        <code/>
        <name/>
      </country>
      <city>
        <name/>
        <latitude/>
        <longitude/>
      </city>
      <university>
        <name/>
        <department/>
      </university>
    </location>
  </domain>
  <domain>
    <name>tsukuba.ac.jp</name>
    <location>
      <country>
        <code>JP</code>
        <name>Japan</name>
      </country>
      <city>
        <name>Tsukuba</name>
        <latitude>36.083302</latitude>
        <longitude>140.116699</longitude>
      </city>
      <university>
        <name>NA</name>
        <department>NA</department>
      </university>
    </location>
  </domain>
  <domain>
    <name>spb.ru</name>
    <location>
      <country>
        <code>RU</code>
        <name>Russian Federation</name>
      </country>
      <city>
        <name>N/A</name>
        <latitude>60.000000</latitude>
        <longitude>100.000000</longitude>
      </city>
      <university>
        <name>NA</name>
        <department>NA</department>
      </university>
    </location>
  </domain>
  <domain>
    <name>vse.cz</name>
    <location>
      <country>
        <code>CZ</code>
        <name>Czech Republic</name>
      </country>
      <city>
        <name>Prague</name>
        <latitude>50.083302</latitude>
        <longitude>14.466700</longitude>
      </city>
      <university>
        <name>NA</name>
        <department>NA</department>
      </university>
    </location>
  </domain>
  <domain>
    <name>uva.nl</name>
    <location>
      <country>
        <code>NL</code>
        <name>Netherlands</name>
      </country>
      <city>
        <name>Amsterdam</name>
        <latitude>52.349998</latitude>
        <longitude>4.916700</longitude>
      </city>
      <university>
        <name>NA</name>
        <department>NA</department>
      </university>
    </location>
  </domain>
  <domain>
    <name>LeidenUniv.nl</name>
    <location>
      <country>
        <code>NL</code>
        <name>Netherlands</name>
      </country>
      <city>
        <name>Leiden</name>
        <latitude>52.150002</latitude>
        <longitude>4.500000</longitude>
      </city>
      <university>
        <name>NA</name>
        <department>NA</department>
      </university>
    </location>
  </domain>
  <domain>
    <name>brookes.ac.uk</name>
    <location>
      <country>
        <code>GB</code>
        <name>United Kingdom</name>
      </country>
      <city>
        <name>Oxford</name>
        <latitude>51.750000</latitude>
        <longitude>-1.250000</longitude>
      </city>
      <university>
        <name>NA</name>
        <department>NA</department>
      </university>
    </location>
  </domain>
  <domain>
    <name>idsia.ch</name>
    <location>
      <country>
        <code>CH</code>
        <name>Switzerland</name>
      </country>
      <city>
        <name>N/A</name>
        <latitude>47.000000</latitude>
        <longitude>8.000000</longitude>
      </city>
      <university>
        <name>NA</name>
        <department>NA</department>
      </university>
    </location>
  </domain>
  <domain>
    <name>teleline.es</name>
    <location>
      <country>
        <code>ES</code>
        <name>Spain</name>
      </country>
      <city>
        <name>N/A</name>
        <latitude>40.000000</latitude>
        <longitude>-4.000000</longitude>
      </city>
      <university>
        <name>NA</name>
        <department>NA</department>
      </university>
    </location>
  </domain>
  <domain>
    <name>navy.mil</name>
    <location>
      <country>
        <code>DE</code>
        <name>Germany</name>
      </country>
      <city>
        <name>N/A</name>
        <latitude>51.000000</latitude>
        <longitude>9.000000</longitude>
      </city>
      <university>
        <name>NA</name>
        <department>NA</department>
      </university>
    </location>
  </domain>
  <domain>
    <name>unisi.it</name>
    <location>
      <country>
        <code>IT</code>
        <name>Italy</name>
      </country>
      <city>
        <name>Siena</name>
        <latitude>43.316700</latitude>
        <longitude>11.350000</longitude>
      </city>
      <university>
        <name>NA</name>
        <department>NA</department>
      </university>
    </location>
  </domain>
  <domain>
    <name>technion.ac.il</name>
    <location>
      <country>
        <code>IL</code>
        <name>Israel</name>
      </country>
      <city>
        <name>N/A</name>
        <latitude>31.500000</latitude>
        <longitude>34.750000</longitude>
      </city>
      <university>
        <name>NA</name>
        <department>NA</department>
      </university>
    </location>
  </domain>
  <domain>
    <name>tuwien.ac.at</name>
    <location>
      <country>
        <code>AT</code>
        <name>Austria</name>
      </country>
      <city>
        <name>Vienna</name>
        <latitude>48.200001</latitude>
        <longitude>16.366699</longitude>
      </city>
      <university>
        <name>NA</name>
        <department>NA</department>
      </university>
    </location>
  </domain>
  <domain>
    <name>eudoramail.com</name>
    <location>
      <country>
        <code>US</code>
        <name>United States</name>
      </country>
      <city>
        <name>Waltham</name>
        <latitude>42.403000</latitude>
        <longitude>-71.259003</longitude>
      </city>
      <university>
        <name>NA</name>
        <department>NA</department>
      </university>
    </location>
  </domain>
  <domain>
    <name>unipd.it</name>
    <location>
      <country>
        <code>IT</code>
        <name>Italy</name>
      </country>
      <city>
        <name>N/A</name>
        <latitude>42.833302</latitude>
        <longitude>12.833300</longitude>
      </city>
      <university>
        <name>NA</name>
        <department>NA</department>
      </university>
    </location>
  </domain>
  <domain>
    <name>unich.it</name>
    <location>
      <country>
        <code>IT</code>
        <name>Italy</name>
      </country>
      <city>
        <name>N/A</name>
        <latitude>42.833302</latitude>
        <longitude>12.833300</longitude>
      </city>
      <university>
        <name>NA</name>
        <department>NA</department>
      </university>
    </location>
  </domain>
  <domain>
    <name>irit.fr</name>
    <location>
      <country>
        <code>FR</code>
        <name>France</name>
      </country>
      <city>
        <name>Toulouse</name>
        <latitude>43.599998</latitude>
        <longitude>1.433300</longitude>
      </city>
      <university>
        <name>NA</name>
        <department>NA</department>
      </university>
    </location>
  </domain>
  <domain>
    <name>ulb.ac.be</name>
    <location>
      <country>
        <code>BE</code>
        <name>Belgium</name>
      </country>
      <city>
        <name>Brussels</name>
        <latitude>50.833302</latitude>
        <longitude>4.333300</longitude>
      </city>
      <university>
        <name>NA</name>
        <department>NA</department>
      </university>
    </location>
  </domain>
  <domain>
    <name>unh.edu</name>
    <location>
      <country>
        <code>US</code>
        <name>United States</name>
      </country>
      <city>
        <name>Durham</name>
        <latitude>43.127102</latitude>
        <longitude>-70.962700</longitude>
      </city>
      <university>
        <name>NA</name>
        <department>NA</department>
      </university>
    </location>
  </domain>
  <domain>
    <name>cornell.edu</name>
    <location>
      <country>
        <code>US</code>
        <name>United States</name>
      </country>
      <city>
        <name>Ithaca</name>
        <latitude>42.448502</latitude>
        <longitude>-76.480400</longitude>
      </city>
      <university>
        <name>NA</name>
        <department>NA</department>
      </university>
    </location>
  </domain>
  <domain>
    <name>ireq.ca</name>
    <location>
      <country>
        <code>CA</code>
        <name>Canada</name>
      </country>
      <city>
        <name>Montreal</name>
        <latitude>45.500000</latitude>
        <longitude>-73.583298</longitude>
      </city>
      <university>
        <name>NA</name>
        <department>NA</department>
      </university>
    </location>
  </domain>
  <domain>
    <name>bristol.ac.uk</name>
    <location>
      <country>
        <code>GB</code>
        <name>United Kingdom</name>
      </country>
      <city>
        <name>Bristol</name>
        <latitude>51.450001</latitude>
        <longitude>-2.583300</longitude>
      </city>
      <university>
        <name>NA</name>
        <department>NA</department>
      </university>
    </location>
  </domain>
  <domain>
    <name>bris.ac.uk</name>
    <location>
      <country>
        <code>GB</code>
        <name>United Kingdom</name>
      </country>
      <city>
        <name>Bristol</name>
        <latitude>51.450001</latitude>
        <longitude>-2.583300</longitude>
      </city>
      <university>
        <name>NA</name>
        <department>NA</department>
      </university>
    </location>
  </domain>
  <domain>
    <name>ethz.ch</name>
    <location>
      <country>
        <code>CH</code>
        <name>Switzerland</name>
      </country>
      <city>
        <name></name>
        <latitude>47.366699</latitude>
        <longitude>8.550000</longitude>
      </city>
      <university>
        <name>NA</name>
        <department>NA</department>
      </university>
    </location>
  </domain>
  <domain>
    <name>pi.be</name>
    <location>
      <country>
        <code>BE</code>
        <name>Belgium</name>
      </country>
      <city>
        <name>N/A</name>
        <latitude>50.833302</latitude>
        <longitude>4.000000</longitude>
      </city>
      <university>
        <name>NA</name>
        <department>NA</department>
      </university>
    </location>
  </domain>
  <domain>
    <name>risoe.dk</name>
    <location>
      <country>
        <code>DK</code>
        <name>Denmark</name>
      </country>
      <city>
        <name>Roskilde</name>
        <latitude>55.650002</latitude>
        <longitude>12.083300</longitude>
      </city>
      <university>
        <name>NA</name>
        <department>NA</department>
      </university>
    </location>
  </domain>
  <domain>
    <name>email.de</name>
    <location>
      <country>
        <code>DE</code>
        <name>Germany</name>
      </country>
      <city>
        <name>N/A</name>
        <latitude>51.000000</latitude>
        <longitude>9.000000</longitude>
      </city>
      <university>
        <name>NA</name>
        <department>NA</department>
      </university>
    </location>
  </domain>
  <domain>
    <name>northwestern.edu</name>
    <location>
      <country>
        <code>US</code>
        <name>United States</name>
      </country>
      <city>
        <name>Evanston</name>
        <latitude>42.058601</latitude>
        <longitude>-87.684502</longitude>
      </city>
      <university>
        <name>NA</name>
        <department>NA</department>
      </university>
    </location>
  </domain>
  <domain>
    <name>unito.it</name>
    <location>
      <country>
        <code>IT</code>
        <name>Italy</name>
      </country>
      <city>
        <name>N/A</name>
        <latitude>42.833302</latitude>
        <longitude>12.833300</longitude>
      </city>
      <university>
        <name>NA</name>
        <department>NA</department>
      </university>
    </location>
  </domain>
  <domain>
    <name>unimo.it</name>
    <location>
      <country>
        <code>IT</code>
        <name>Italy</name>
      </country>
      <city>
        <name>Modena</name>
        <latitude>44.666698</latitude>
        <longitude>10.916700</longitude>
      </city>
      <university>
        <name>NA</name>
        <department>NA</department>
      </university>
    </location>
  </domain>
  <domain>
    <name>uol.com.br</name>
    <location>
      <country>
        <code>BR</code>
        <name>Brazil</name>
      </country>
      <city>
        <name>N/A</name>
        <latitude>-10.000000</latitude>
        <longitude>-55.000000</longitude>
      </city>
      <university>
        <name>NA</name>
        <department>NA</department>
      </university>
    </location>
  </domain>
  <domain>
    <name>elogica.com.br</name>
    <location>
      <country>
        <code>BR</code>
        <name>Brazil</name>
      </country>
      <city>
        <name></name>
        <latitude>-23.533300</latitude>
        <longitude>-46.616699</longitude>
      </city>
      <university>
        <name>NA</name>
        <department>NA</department>
      </university>
    </location>
  </domain>
  <domain>
    <name>ifp.fr</name>
    <location>
      <country>
        <code>FR</code>
        <name>France</name>
      </country>
      <city>
        <name>N/A</name>
        <latitude>46.000000</latitude>
        <longitude>2.000000</longitude>
      </city>
      <university>
        <name>NA</name>
        <department>NA</department>
      </university>
    </location>
  </domain>
  <domain>
    <name>inpl-nancy.fr</name>
    <location>
      <country>
        <code>FR</code>
        <name>France</name>
      </country>
      <city>
        <name>Vandoeuvre</name>
        <latitude>48.650002</latitude>
        <longitude>6.183300</longitude>
      </city>
      <university>
        <name>NA</name>
        <department>NA</department>
      </university>
    </location>
  </domain>
  <domain>
    <name>mindspring.com</name>
    <location>
      <country>
        <code>US</code>
        <name>United States</name>
      </country>
      <city>
        <name>Atlanta</name>
        <latitude>33.798100</latitude>
        <longitude>-84.387703</longitude>
      </city>
      <university>
        <name>NA</name>
        <department>NA</department>
      </university>
    </location>
  </domain>
  <domain>
    <name>panix.com</name>
    <location>
      <country>
        <code>US</code>
        <name>United States</name>
      </country>
      <city>
        <name>New York</name>
        <latitude>40.751701</latitude>
        <longitude>-73.997200</longitude>
      </city>
      <university>
        <name>NA</name>
        <department>NA</department>
      </university>
    </location>
  </domain>
  <domain>
    <name>univ-artois.fr</name>
    <location>
      <country>
        <code>FR</code>
        <name>France</name>
      </country>
      <city>
        <name>N/A</name>
        <latitude>46.000000</latitude>
        <longitude>2.000000</longitude>
      </city>
      <university>
        <name>NA</name>
        <department>NA</department>
      </university>
    </location>
  </domain>
  <domain>
    <name>iastate.edu</name>
    <location>
      <country>
        <code>US</code>
        <name>United States</name>
      </country>
      <city>
        <name>Ames</name>
        <latitude>42.035999</latitude>
        <longitude>-93.465202</longitude>
      </city>
      <university>
        <name>NA</name>
        <department>NA</department>
      </university>
    </location>
  </domain>
  <domain>
    <name>edf.fr</name>
    <location>
      <country>
        <code>FR</code>
        <name>France</name>
      </country>
      <city>
        <name>N/A</name>
        <latitude>46.000000</latitude>
        <longitude>2.000000</longitude>
      </city>
      <university>
        <name>NA</name>
        <department>NA</department>
      </university>
    </location>
  </domain>
  <domain>
    <name>mail.ru</name>
    <location>
      <country>
        <code>RU</code>
        <name>Russian Federation</name>
      </country>
      <city>
        <name>N/A</name>
        <latitude>60.000000</latitude>
        <longitude>100.000000</longitude>
      </city>
      <university>
        <name>NA</name>
        <department>NA</department>
      </university>
    </location>
  </domain>
  <domain>
    <name>auckland.ac.nz</name>
    <location>
      <country>
        <code>NZ</code>
        <name>New Zealand</name>
      </country>
      <city>
        <name>Auckland</name>
        <latitude>-36.866699</latitude>
        <longitude>174.766693</longitude>
      </city>
      <university>
        <name>NA</name>
        <department>NA</department>
      </university>
    </location>
  </domain>
  <domain>
    <name>durham.ac.uk</name>
    <location>
      <country>
        <code>GB</code>
        <name>United Kingdom</name>
      </country>
      <city>
        <name>Durham</name>
        <latitude>54.766701</latitude>
        <longitude>-1.566700</longitude>
      </city>
      <university>
        <name>NA</name>
        <department>NA</department>
      </university>
    </location>
  </domain>
  <domain>
    <name>ucla.edu</name>
    <location>
      <country>
        <code>US</code>
        <name>United States</name>
      </country>
      <city>
        <name>Los Angeles</name>
        <latitude>33.786598</latitude>
        <longitude>-118.298698</longitude>
      </city>
      <university>
        <name>NA</name>
        <department>NA</department>
      </university>
    </location>
  </domain>
  <domain>
    <name>ugent.be</name>
    <location>
      <country>
        <code>BE</code>
        <name>Belgium</name>
      </country>
      <city>
        <name>Ghent</name>
        <latitude>51.049999</latitude>
        <longitude>3.716700</longitude>
      </city>
      <university>
        <name>NA</name>
        <department>NA</department>
      </university>
    </location>
  </domain>
  <domain>
    <name>gmail.com</name>
    <location>
      <country>
        <code>US</code>
        <name>United States</name>
      </country>
      <city>
        <name>Mountain View</name>
        <latitude>37.419201</latitude>
        <longitude>-122.057404</longitude>
      </city>
      <university>
        <name>NA</name>
        <department>NA</department>
      </university>
    </location>
  </domain>
  <domain>
    <name>urjc.es</name>
    <location>
      <country>
        <code>IP Address not found</code>
        <name>NA</name>
      </country>
      <city>
        <name>NA</name>
        <latitude>NA</latitude>
        <longitude>NA</longitude>
      </city>
      <university>
        <name>NA</name>
        <department>NA</department>
      </university>
    </location>
  </domain>
  <domain>
    <name>umn.edu</name>
    <location>
      <country>
        <code>US</code>
        <name>United States</name>
      </country>
      <city>
        <name>Minneapolis</name>
        <latitude>44.973301</latitude>
        <longitude>-93.232300</longitude>
      </city>
      <university>
        <name>NA</name>
        <department>NA</department>
      </university>
    </location>
  </domain>
  <domain>
    <name>rutgers.edu</name>
    <location>
      <country>
        <code>US</code>
        <name>United States</name>
      </country>
      <city>
        <name>Piscataway</name>
        <latitude>40.551601</latitude>
        <longitude>-74.463699</longitude>
      </city>
      <university>
        <name>NA</name>
        <department>NA</department>
      </university>
    </location>
  </domain>
  <domain>
    <name>monmouth.edu</name>
    <location>
      <country>
        <code>US</code>
        <name>United States</name>
      </country>
      <city>
        <name>West Long Branch</name>
        <latitude>40.288399</latitude>
        <longitude>-74.019501</longitude>
      </city>
      <university>
        <name>NA</name>
        <department>NA</department>
      </university>
    </location>
  </domain>
  <domain>
    <name>unibe.ch</name>
    <location>
      <country>
        <code>CH</code>
        <name>Switzerland</name>
      </country>
      <city>
        <name>Berne</name>
        <latitude>46.916698</latitude>
        <longitude>7.466700</longitude>
      </city>
      <university>
        <name>NA</name>
        <department>NA</department>
      </university>
    </location>
  </domain>
  <domain>
    <name>ncl.ac.uk</name>
    <location>
      <country>
        <code>GB</code>
        <name>United Kingdom</name>
      </country>
      <city>
        <name>Newcastle Upon Tyne</name>
        <latitude>54.988098</latitude>
        <longitude>-1.619400</longitude>
      </city>
      <university>
        <name>NA</name>
        <department>NA</department>
      </university>
    </location>
  </domain>
  <domain>
    <name>web.de</name>
    <location>
      <country>
        <code>DE</code>
        <name>Germany</name>
      </country>
      <city>
        <name>N/A</name>
        <latitude>51.000000</latitude>
        <longitude>9.000000</longitude>
      </city>
      <university>
        <name>NA</name>
        <department>NA</department>
      </university>
    </location>
  </domain>
  <domain>
    <name>units.it</name>
    <location>
      <country>
        <code>IT</code>
        <name>Italy</name>
      </country>
      <city>
        <name>Trieste</name>
        <latitude>45.648602</latitude>
        <longitude>13.780000</longitude>
      </city>
      <university>
        <name>NA</name>
        <department>NA</department>
      </university>
    </location>
  </domain>
  <domain>
    <name>unisi.ch</name>
    <location>
      <country>
        <code>CH</code>
        <name>Switzerland</name>
      </country>
      <city>
        <name>N/A</name>
        <latitude>47.000000</latitude>
        <longitude>8.000000</longitude>
      </city>
      <university>
        <name>NA</name>
        <department>NA</department>
      </university>
    </location>
  </domain>
  <domain>
    <name>unisg.ch</name>
    <location>
      <country>
        <code>CH</code>
        <name>Switzerland</name>
      </country>
      <city>
        <name>Saint Gallen</name>
        <latitude>47.466702</latitude>
        <longitude>9.400000</longitude>
      </city>
      <university>
        <name>NA</name>
        <department>NA</department>
      </university>
    </location>
  </domain>
  <domain>
    <name>UGent.be</name>
    <location>
      <country>
        <code>BE</code>
        <name>Belgium</name>
      </country>
      <city>
        <name>Ghent</name>
        <latitude>51.049999</latitude>
        <longitude>3.716700</longitude>
      </city>
      <university>
        <name>NA</name>
        <department>NA</department>
      </university>
    </location>
  </domain>
  <domain>
    <name>ku.edu</name>
    <location>
      <country>
        <code>US</code>
        <name>United States</name>
      </country>
      <city>
        <name>Lawrence</name>
        <latitude>38.952499</latitude>
        <longitude>-95.275597</longitude>
      </city>
      <university>
        <name>NA</name>
        <department>NA</department>
      </university>
    </location>
  </domain>
  <domain>
    <name>yahoo.com.br</name>
    <location>
      <country>
        <code>US</code>
        <name>United States</name>
      </country>
      <city>
        <name>Sunnyvale</name>
        <latitude>37.424900</latitude>
        <longitude>-122.007401</longitude>
      </city>
      <university>
        <name>NA</name>
        <department>NA</department>
      </university>
    </location>
  </domain>
  <domain>
    <name>hotlink.com.br</name>
    <location>
      <country>
        <code>BR</code>
        <name>Brazil</name>
      </country>
      <city>
        <name>Recife</name>
        <latitude>-8.050000</latitude>
        <longitude>-34.900002</longitude>
      </city>
      <university>
        <name>NA</name>
        <department>NA</department>
      </university>
    </location>
  </domain>
  <domain>
    <name>uni-lj.si</name>
    <location>
      <country>
        <code>SI</code>
        <name>Slovenia</name>
      </country>
      <city>
        <name>Ljubljana</name>
        <latitude>46.055302</latitude>
        <longitude>14.514400</longitude>
      </city>
      <university>
        <name>NA</name>
        <department>NA</department>
      </university>
    </location>
  </domain>
  <domain>
    <name>cs.com</name>
    <location>
      <country>
        <code>US</code>
        <name>United States</name>
      </country>
      <city>
        <name>N/A</name>
        <latitude>38.000000</latitude>
        <longitude>-97.000000</longitude>
      </city>
      <university>
        <name>NA</name>
        <department>NA</department>
      </university>
    </location>
  </domain>
  <domain>
    <name>cas.cz</name>
    <location>
      <country>
        <code>CZ</code>
        <name>Czech Republic</name>
      </country>
      <city>
        <name>Prague</name>
        <latitude>50.083302</latitude>
        <longitude>14.466700</longitude>
      </city>
      <university>
        <name>NA</name>
        <department>NA</department>
      </university>
    </location>
  </domain>
  <domain>
    <name>admin.ch</name>
    <location>
      <country>
        <code>CH</code>
        <name>Switzerland</name>
      </country>
      <city>
        <name>Berne</name>
        <latitude>46.916698</latitude>
        <longitude>7.466700</longitude>
      </city>
      <university>
        <name>NA</name>
        <department>NA</department>
      </university>
    </location>
  </domain>
  <domain>
    <name>inra.fr</name>
    <location>
      <country>
        <code>FR</code>
        <name>France</name>
      </country>
      <city>
        <name>Jouy-en-josas</name>
        <latitude>48.766701</latitude>
        <longitude>2.166700</longitude>
      </city>
      <university>
        <name>NA</name>
        <department>NA</department>
      </university>
    </location>
  </domain>
  <domain>
    <name>usask.ca</name>
    <location>
      <country>
        <code>CA</code>
        <name>Canada</name>
      </country>
      <city>
        <name>Saskatoon</name>
        <latitude>52.133301</latitude>
        <longitude>-106.666702</longitude>
      </city>
      <university>
        <name>NA</name>
        <department>NA</department>
      </university>
    </location>
  </domain>
  <domain>
    <name>sympatico.ca</name>
    <location>
      <country>
        <code>CA</code>
        <name>Canada</name>
      </country>
      <city>
        <name>Toronto</name>
        <latitude>43.666698</latitude>
        <longitude>-79.416702</longitude>
      </city>
      <university>
        <name>NA</name>
        <department>NA</department>
      </university>
    </location>
  </domain>
  <domain>
    <name>utc.fr</name>
    <location>
      <country>
        <code>FR</code>
        <name>France</name>
      </country>
      <city>
        <name></name>
        <latitude>49.416698</latitude>
        <longitude>2.833300</longitude>
      </city>
      <university>
        <name>NA</name>
        <department>NA</department>
      </university>
    </location>
  </domain>
  <domain>
    <name>irsn.fr</name>
    <location>
      <country>
        <code>FR</code>
        <name>France</name>
      </country>
      <city>
        <name>N/A</name>
        <latitude>46.000000</latitude>
        <longitude>2.000000</longitude>
      </city>
      <university>
        <name>NA</name>
        <department>NA</department>
      </university>
    </location>
  </domain>
  <domain>
    <name>su.se</name>
    <location>
      <country>
        <code>SE</code>
        <name>Sweden</name>
      </country>
      <city>
        <name>Stockholm</name>
        <latitude>59.333302</latitude>
        <longitude>18.049999</longitude>
      </city>
      <university>
        <name>NA</name>
        <department>NA</department>
      </university>
    </location>
  </domain>
  <domain>
    <name>miun.se</name>
    <location>
      <country>
        <code>SE</code>
        <name>Sweden</name>
      </country>
      <city>
        <name>Sundsvall</name>
        <latitude>62.383301</latitude>
        <longitude>17.299999</longitude>
      </city>
      <university>
        <name>NA</name>
        <department>NA</department>
      </university>
    </location>
  </domain>
  <domain>
    <name>edu.ar</name>
    <location>
      <country>
        <code/>
        <name/>
      </country>
      <city>
        <name/>
        <latitude/>
        <longitude/>
      </city>
      <university>
        <name/>
        <department/>
      </university>
    </location>
  </domain>
  <domain>
    <name>pik-potsdam.de</name>
    <location>
      <country>
        <code>DE</code>
        <name>Germany</name>
      </country>
      <city>
        <name>Potsdam</name>
        <latitude>52.400002</latitude>
        <longitude>13.066700</longitude>
      </city>
      <university>
        <name>NA</name>
        <department>NA</department>
      </university>
    </location>
  </domain>
  <domain>
    <name>rb.ru</name>
    <location>
      <country>
        <code>RU</code>
        <name>Russian Federation</name>
      </country>
      <city>
        <name>N/A</name>
        <latitude>60.000000</latitude>
        <longitude>100.000000</longitude>
      </city>
      <university>
        <name>NA</name>
        <department>NA</department>
      </university>
    </location>
  </domain>
  <domain>
    <name>tu-berlin.de</name>
    <location>
      <country>
        <code>DE</code>
        <name>Germany</name>
      </country>
      <city>
        <name>Berlin</name>
        <latitude>52.516701</latitude>
        <longitude>13.400000</longitude>
      </city>
      <university>
        <name>NA</name>
        <department>NA</department>
      </university>
    </location>
  </domain>
  <domain>
    <name>nuigalway.ie</name>
    <location>
      <country>
        <code>IE</code>
        <name>Ireland</name>
      </country>
      <city>
        <name>Gaillimh</name>
        <latitude>53.271900</latitude>
        <longitude>-9.048900</longitude>
      </city>
      <university>
        <name>NA</name>
        <department>NA</department>
      </university>
    </location>
  </domain>
  <domain>
    <name>ul.ie</name>
    <location>
      <country>
        <code>IE</code>
        <name>Ireland</name>
      </country>
      <city>
        <name>Limerick</name>
        <latitude>52.664700</latitude>
        <longitude>-8.623100</longitude>
      </city>
      <university>
        <name>NA</name>
        <department>NA</department>
      </university>
    </location>
  </domain>
  <domain>
    <name>sbg.ac.at</name>
    <location>
      <country>
        <code>AT</code>
        <name>Austria</name>
      </country>
      <city>
        <name>Salzburg</name>
        <latitude>47.799999</latitude>
        <longitude>13.033300</longitude>
      </city>
      <university>
        <name>NA</name>
        <department>NA</department>
      </university>
    </location>
  </domain>
  <domain>
    <name>hutter1.net</name>
    <location>
      <country>
        <code>DE</code>
        <name>Germany</name>
      </country>
      <city>
        <name></name>
        <latitude>51.650002</latitude>
        <longitude>6.183300</longitude>
      </city>
      <university>
        <name>NA</name>
        <department>NA</department>
      </university>
    </location>
  </domain>
  <domain>
    <name>ufpe.br</name>
    <location>
      <country>
        <code>BR</code>
        <name>Brazil</name>
      </country>
      <city>
        <name>Recife</name>
        <latitude>-8.050000</latitude>
        <longitude>-34.900002</longitude>
      </city>
      <university>
        <name>NA</name>
        <department>NA</department>
      </university>
    </location>
  </domain>
  <domain>
    <name>adu.ac.ae</name>
    <location>
      <country>
        <code>CA</code>
        <name>Canada</name>
      </country>
      <city>
        <name>Vancouver</name>
        <latitude>49.250000</latitude>
        <longitude>-123.133301</longitude>
      </city>
      <university>
        <name>NA</name>
        <department>NA</department>
      </university>
    </location>
  </domain>
  <domain>
    <name>upf.edu</name>
    <location>
      <country>
        <code>ES</code>
        <name>Spain</name>
      </country>
      <city>
        <name>Barcelona</name>
        <latitude>41.383301</latitude>
        <longitude>2.183300</longitude>
      </city>
      <university>
        <name>NA</name>
        <department>NA</department>
      </university>
    </location>
  </domain>
  <domain>
    <name>nyu.edu</name>
    <location>
      <country>
        <code>US</code>
        <name>United States</name>
      </country>
      <city>
        <name>New York</name>
        <latitude>40.731701</latitude>
        <longitude>-73.988503</longitude>
      </city>
      <university>
        <name>NA</name>
        <department>NA</department>
      </university>
    </location>
  </domain>
  <domain>
    <name>lmu.de</name>
    <location>
      <country>
        <code>DE</code>
        <name>Germany</name>
      </country>
      <city>
        <name>Munich</name>
        <latitude>48.150002</latitude>
        <longitude>11.583300</longitude>
      </city>
      <university>
        <name>NA</name>
        <department>NA</department>
      </university>
    </location>
  </domain>
  <domain>
    <name>gsf.de</name>
    <location>
      <country>
        <code>DE</code>
        <name>Germany</name>
      </country>
      <city>
        <name>Munich</name>
        <latitude>48.150002</latitude>
        <longitude>11.583300</longitude>
      </city>
      <university>
        <name>NA</name>
        <department>NA</department>
      </university>
    </location>
  </domain>
  <domain>
    <name>unipa.it</name>
    <location>
      <country>
        <code>IT</code>
        <name>Italy</name>
      </country>
      <city>
        <name>Palermo</name>
        <latitude>38.116699</latitude>
        <longitude>13.366700</longitude>
      </city>
      <university>
        <name>NA</name>
        <department>NA</department>
      </university>
    </location>
  </domain>
  <domain>
    <name>newcastle.ac.uk</name>
    <location>
      <country>
        <code>GB</code>
        <name>United Kingdom</name>
      </country>
      <city>
        <name>Newcastle Upon Tyne</name>
        <latitude>54.988098</latitude>
        <longitude>-1.619400</longitude>
      </city>
      <university>
        <name>NA</name>
        <department>NA</department>
      </university>
    </location>
  </domain>
  <domain>
    <name>uni-bayreuth.de</name>
    <location>
      <country>
        <code>DE</code>
        <name>Germany</name>
      </country>
      <city>
        <name>Bayreuth</name>
        <latitude>49.948101</latitude>
        <longitude>11.578300</longitude>
      </city>
      <university>
        <name>NA</name>
        <department>NA</department>
      </university>
    </location>
  </domain>
  <domain>
    <name>cwi.nl</name>
    <location>
      <country>
        <code>NL</code>
        <name>Netherlands</name>
      </country>
      <city>
        <name>N/A</name>
        <latitude>52.500000</latitude>
        <longitude>5.750000</longitude>
      </city>
      <university>
        <name>NA</name>
        <department>NA</department>
      </university>
    </location>
  </domain>
  <domain>
    <name>his.se</name>
    <location>
      <country>
        <code>SE</code>
        <name>Sweden</name>
      </country>
      <city>
        <name>N/A</name>
        <latitude>62.000000</latitude>
        <longitude>15.000000</longitude>
      </city>
      <university>
        <name>NA</name>
        <department>NA</department>
      </university>
    </location>
  </domain>
  <domain>
    <name>unican.es</name>
    <location>
      <country>
        <code>ES</code>
        <name>Spain</name>
      </country>
      <city>
        <name>Palma</name>
        <latitude>39.566700</latitude>
        <longitude>2.650000</longitude>
      </city>
      <university>
        <name>NA</name>
        <department>NA</department>
      </university>
    </location>
  </domain>
  <domain>
    <name>qub.ac.uk</name>
    <location>
      <country>
        <code>GB</code>
        <name>United Kingdom</name>
      </country>
      <city>
        <name>Belfast</name>
        <latitude>54.583302</latitude>
        <longitude>-5.933300</longitude>
      </city>
      <university>
        <name>NA</name>
        <department>NA</department>
      </university>
    </location>
  </domain>
  <domain>
    <name>lirmm.fr</name>
    <location>
      <country>
        <code>FR</code>
        <name>France</name>
      </country>
      <city>
        <name>Montpellier</name>
        <latitude>43.599998</latitude>
        <longitude>3.883300</longitude>
      </city>
      <university>
        <name>NA</name>
        <department>NA</department>
      </university>
    </location>
  </domain>
  <domain>
    <name>thalesgroup.com</name>
    <location>
      <country>
        <code>GB</code>
        <name>United Kingdom</name>
      </country>
      <city>
        <name>N/A</name>
        <latitude>54.000000</latitude>
        <longitude>-2.000000</longitude>
      </city>
      <university>
        <name>NA</name>
        <department>NA</department>
      </university>
    </location>
  </domain>
  <domain>
    <name>hig.se</name>
    <location>
      <country>
        <code>SE</code>
        <name>Sweden</name>
      </country>
      <city>
        <name></name>
        <latitude>60.666698</latitude>
        <longitude>17.166700</longitude>
      </city>
      <university>
        <name>NA</name>
        <department>NA</department>
      </university>
    </location>
  </domain>
  <domain>
    <name>fhs.se</name>
    <location>
      <country>
        <code>SE</code>
        <name>Sweden</name>
      </country>
      <city>
        <name>N/A</name>
        <latitude>62.000000</latitude>
        <longitude>15.000000</longitude>
      </city>
      <university>
        <name>NA</name>
        <department>NA</department>
      </university>
    </location>
  </domain>
</domains>
