<?xml version="1.0"?>
<domains>
  <domain>
    <name>utc.fr</name>
    <location>
      <country>
        <code>FR</code>
        <name>France</name>
      </country>
      <city>
        <name>Compiegne</name>
        <latitude>49.4149</latitude>
        <longitude>2.8231</longitude>
      </city>
      <university>
        <name>NA</name>
        <department>NA</department>
      </university>
    </location>
  </domain>
  <domain>
    <name>isae.fr</name>
    <location>
      <country>
        <code>FR</code>
        <name>France</name>
      </country>
      <city>
        <name>Toulouse</name>
        <latitude>43.604301</latitude>
        <longitude>1.443700</longitude>
      </city>
      <university>
        <name>NA</name>
        <department>NA</department>
      </university>
    </location>
  </domain>
  <domain>
    <name>irit.fr</name>
    <location>
      <country>
        <code>FR</code>
        <name>France</name>
      </country>
      <city>
        <name>Toulouse</name>
        <latitude>43.599499</latitude>
        <longitude>1.433200</longitude>
      </city>
      <university>
        <name>NA</name>
        <department>NA</department>
      </university>
    </location>
  </domain>
  <domain>
    <name>idsia.ch</name>
    <location>
      <country>
        <code>CH</code>
        <name>Switzerland</name>
      </country>
      <city>
        <name>Lugano</name>
        <latitude>46</latitude>
        <longitude>8.95</longitude>
      </city>
      <university>
        <name>NA</name>
        <department>NA</department>
      </university>
    </location>
  </domain>
  <domain>
    <name>tiscali.it</name>
    <location>
      <country>
        <code>IT</code>
        <name>Italy</name>
      </country>
      <city>
        <name>N/A</name>
        <latitude>42.833302</latitude>
        <longitude>12.833300</longitude>
      </city>
      <university>
        <name>NA</name>
        <department>NA</department>
      </university>
    </location>
  </domain>
  <domain>
    <name>brookes.ac.uk</name>
    <location>
      <country>
        <code>GB</code>
        <name>United Kingdom</name>
      </country>
      <city>
        <name>Oxford</name>
        <latitude>51.750000</latitude>
        <longitude>-1.250000</longitude>
      </city>
      <university>
        <name>NA</name>
        <department>NA</department>
      </university>
    </location>
  </domain>
  <domain>
    <name>mail.ru</name>
    <location>
      <country>
        <code>RU</code>
        <name>Russian Federation</name>
      </country>
      <city>
        <name>N/A</name>
        <latitude>55.750000</latitude>
        <longitude>37.616600</longitude>
      </city>
      <university>
        <name>NA</name>
        <department>NA</department>
      </university>
    </location>
  </domain>
  <domain>
    <name>gismps.ru</name>
    <location>
      <country>
        <code>RU</code>
        <name>Russian Federation</name>
      </country>
      <city>
        <name>N/A</name>
        <latitude>55.750000</latitude>
        <longitude>37.616600</longitude>
      </city>
      <university>
        <name/>
        <department/>
      </university>
    </location>
  </domain>
  <domain>
    <name>uni-muenchen.de</name>
    <location>
      <country>
        <code>DE</code>
        <name>Germany</name>
      </country>
      <city>
        <name>Munich</name>
        <latitude>48.150002</latitude>
        <longitude>11.583300</longitude>
      </city>
      <university>
        <name>NA</name>
        <department>NA</department>
      </university>
    </location>
  </domain>
  <domain>
    <name>cam.ac.uk</name>
    <location>
      <country>
        <code>GB</code>
        <name>United Kingdom</name>
      </country>
      <city>
        <name>Cambridge</name>
        <latitude>52.200001</latitude>
        <longitude>0.116700</longitude>
      </city>
      <university>
        <name>NA</name>
        <department>NA</department>
      </university>
    </location>
  </domain>
  <domain>
    <name>unipg.it</name>
    <location>
      <country>
        <code>IT</code>
        <name>Italy</name>
      </country>
      <city>
        <name>Perugia</name>
        <latitude>43.133301</latitude>
        <longitude>12.366700</longitude>
      </city>
      <university>
        <name>NA</name>
        <department>NA</department>
      </university>
    </location>
  </domain>
  <domain>
    <name>uniroma1.it</name>
    <location>
      <country>
        <code>IT</code>
        <name>Italy</name>
      </country>
      <city>
        <name>Rome</name>
        <latitude>41.900002</latitude>
        <longitude>12.483300</longitude>
      </city>
      <university>
        <name>NA</name>
        <department>NA</department>
      </university>
    </location>
  </domain>
  <domain>
    <name>uniovi.es</name>
    <location>
      <country>
        <code>ES</code>
        <name>Spain</name>
      </country>
      <city>
        <name>Oviedo</name>
        <latitude>43.363201</latitude>
        <longitude>-5.853100</longitude>
      </city>
      <university>
        <name>NA</name>
        <department>NA</department>
      </university>
    </location>
  </domain>
  <domain>
    <name>usp.br</name>
    <location>
      <country>
        <code>BR</code>
        <name>Brazil</name>
      </country>
      <city>
        <name>Sao Paulo</name>
        <latitude>-23.547701</latitude>
        <longitude>-46.635799</longitude>
      </city>
      <university>
        <name>NA</name>
        <department>NA</department>
      </university>
    </location>
  </domain>
  <domain>
    <name>ugent.be</name>
    <location>
      <country>
        <code>BE</code>
        <name>Belgium</name>
      </country>
      <city>
        <name>Gent</name>
        <latitude>51.049999</latitude>
        <longitude>3.716700</longitude>
      </city>
      <university>
        <name>NA</name>
        <department>NA</department>
      </university>
    </location>
  </domain>
  <domain>
    <name>ncl.ac.uk</name>
    <location>
      <country>
        <code>GB</code>
        <name>United Kingdom</name>
      </country>
      <city>
        <name>Newcastle Upon Tyne</name>
        <latitude>54.988098</latitude>
        <longitude>-1.619400</longitude>
      </city>
      <university>
        <name>NA</name>
        <department>NA</department>
      </university>
    </location>
  </domain>
  <domain>
    <name>ramas.com</name>
    <location>
      <country>
        <code>US</code>
        <name>United States</name>
      </country>
      <city>
        <name>Provo</name>
        <latitude>40.218102</latitude>
        <longitude>-111.613297</longitude>
      </city>
      <university>
        <name>NA</name>
        <department>NA</department>
      </university>
    </location>
  </domain>
  <domain>
    <name>af.mil</name>
    <location>
      <country>
        <code>US</code>
        <name>United States</name>
      </country>
      <city>
        <name>New York</name>
        <latitude>40.800598</latitude>
        <longitude>-73.965302</longitude>
      </city>
      <university>
        <name>NA</name>
        <department>NA</department>
      </university>
    </location>
  </domain>
  <domain>
    <name>lanl.gov</name>
    <location>
      <country>
        <code>US</code>
        <name>United States</name>
      </country>
      <city>
        <name>Los Alamos</name>
        <latitude>35.863899</latitude>
        <longitude>-106.295303</longitude>
      </city>
      <university>
        <name>NA</name>
        <department>NA</department>
      </university>
    </location>
  </domain>
  <domain>
    <name>warwick.ac.uk</name>
    <location>
      <country>
        <code>GB</code>
        <name>United Kingdom</name>
      </country>
      <city>
        <name>Warwick</name>
        <latitude>52.283298</latitude>
        <longitude>-1.583300</longitude>
      </city>
      <university>
        <name>NA</name>
        <department>NA</department>
      </university>
    </location>
  </domain>
  <domain>
    <name>cas.cz</name>
    <location>
      <country>
        <code>CZ</code>
        <name>Czech Republic</name>
      </country>
      <city>
        <name>Prague</name>
        <latitude>50.083302</latitude>
        <longitude>14.416700</longitude>
      </city>
      <university>
        <name>NA</name>
        <department>NA</department>
      </university>
    </location>
  </domain>
  <domain>
    <name>gmail.com</name>
    <location>
      <country>
        <code>US</code>
        <name>United States</name>
      </country>
      <city>
        <name>Mountain View</name>
        <latitude>37.419201</latitude>
        <longitude>-122.057404</longitude>
      </city>
      <university>
        <name>NA</name>
        <department>NA</department>
      </university>
    </location>
  </domain>
  <domain>
    <name>lip6.fr</name>
    <location>
      <country>
        <code>FR</code>
        <name>France</name>
      </country>
      <city>
        <name>Paris</name>
        <latitude>48.866699</latitude>
        <longitude>2.333300</longitude>
      </city>
      <university>
        <name>NA</name>
        <department>NA</department>
      </university>
    </location>
  </domain>
  <domain>
    <name>inra.fr</name>
    <location>
      <country>
        <code>FR</code>
        <name>France</name>
      </country>
      <city>
        <name>Paris</name>
        <latitude>48.860001</latitude>
        <longitude>2.350000</longitude>
      </city>
      <university>
        <name>NA</name>
        <department>NA</department>
      </university>
    </location>
  </domain>
  <domain>
    <name>his.se</name>
    <location>
      <country>
        <code>SE</code>
        <name>Sweden</name>
      </country>
      <city>
        <name>Skovde</name>
        <latitude>58.400002</latitude>
        <longitude>13.850000</longitude>
      </city>
      <university>
        <name>NA</name>
        <department>NA</department>
      </university>
    </location>
  </domain>
  <domain>
    <name>su.se</name>
    <location>
      <country>
        <code>SE</code>
        <name>Sweden</name>
      </country>
      <city>
        <name>Stockholm</name>
        <latitude>59.333302</latitude>
        <longitude>18.049999</longitude>
      </city>
      <university>
        <name>NA</name>
        <department>NA</department>
      </university>
    </location>
  </domain>
  <domain>
    <name>cmu.edu</name>
    <location>
      <country>
        <code>US</code>
        <name>United States</name>
      </country>
      <city>
        <name>Pittsburgh</name>
        <latitude>40.443901</latitude>
        <longitude>-79.956100</longitude>
      </city>
      <university>
        <name>NA</name>
        <department>NA</department>
      </university>
    </location>
  </domain>
  <domain>
    <name>ugr.es</name>
    <location>
      <country>
        <code>ES</code>
        <name>Spain</name>
      </country>
      <city>
        <name>Sevilla</name>
        <latitude>37.382401</latitude>
        <longitude>-5.976100</longitude>
      </city>
      <university>
        <name>NA</name>
        <department>NA</department>
      </university>
    </location>
  </domain>
  <domain>
    <name>polimi.it</name>
    <location>
      <country>
        <code>IT</code>
        <name>Italy</name>
      </country>
      <city>
        <name>Milan</name>
        <latitude>45.466667</latitude>
        <longitude>9.183333</longitude>
      </city>
      <university>
        <name>NA</name>
        <department>NA</department>
      </university>
    </location>
  </domain>
  <domain>
    <name>umiami.edu</name>
    <location>
      <country>
        <code>US</code>
        <name>United States</name>
      </country>
      <city>
        <name>Coral Gables</name>
        <latitude>25.719999</latitude>
        <longitude>-80.270699</longitude>
      </city>
      <university>
        <name>NA</name>
        <department>NA</department>
      </university>
    </location>
  </domain>
  <domain>
    <name>tufts.edu</name>
    <location>
      <country>
        <code>US</code>
        <name>United States</name>
      </country>
      <city>
        <name>Somerville</name>
        <latitude>42.401901</latitude>
        <longitude>-71.119301</longitude>
      </city>
      <university>
        <name>NA</name>
        <department>NA</department>
      </university>
    </location>
  </domain>
  <domain>
    <name>miami.edu</name>
    <location>
      <country>
        <code>US</code>
        <name>United States</name>
      </country>
      <city>
        <name>Coral Gables</name>
        <latitude>25.719999</latitude>
        <longitude>-80.270699</longitude>
      </city>
      <university>
        <name>NA</name>
        <department>NA</department>
      </university>
    </location>
  </domain>
  <domain>
    <name>UGent.be</name>
    <location>
      <country>
        <code>BE</code>
        <name>Belgium</name>
      </country>
      <city>
        <name>Gent</name>
        <latitude>51.049999</latitude>
        <longitude>3.716700</longitude>
      </city>
      <university>
        <name>NA</name>
        <department>NA</department>
      </university>
    </location>
  </domain>
  <domain>
    <name>edu.au</name>
    <location>
      <country>
        <code>AU</code>
        <name>Australia</name>
      </country>
      <city>
        <name>Canberra</name>
        <latitude>-35.3075</latitude>
        <longitude>149.124417</longitude>
      </city>
      <university>
        <name/>
        <department/>
      </university>
    </location>
  </domain>
  <domain>
    <name>durham.ac.uk</name>
    <location>
      <country>
        <code>GB</code>
        <name>United Kingdom</name>
      </country>
      <city>
        <name>Durham</name>
        <latitude>54.766701</latitude>
        <longitude>-1.566700</longitude>
      </city>
      <university>
        <name>NA</name>
        <department>NA</department>
      </university>
    </location>
  </domain>
  <domain>
    <name>uni-lj.si</name>
    <location>
      <country>
        <code>SI</code>
        <name>Slovenia</name>
      </country>
      <city>
        <name>Ljubljana</name>
        <latitude>46.055302</latitude>
        <longitude>14.514400</longitude>
      </city>
      <university>
        <name>NA</name>
        <department>NA</department>
      </university>
    </location>
  </domain>
  <domain>
    <name>edu.cn</name>
    <location>
      <country>
        <code>CN</code>
        <name>China</name>
      </country>
      <city>
        <name>Beijing</name>
        <latitude>39.928902</latitude>
        <longitude>116.388298</longitude>
      </city>
      <university>
        <name>NA</name>
        <department>NA</department>
      </university>
    </location>
  </domain>
</domains>
