<?xml version="1.0"?>
<authors>
  <year>2009</year>
  <author>
    <name>Horacio Arlo-Costa</name>
    <email>hcosta@andrew.cmu.edu</email>
    <location>
      <country>
        <code>US</code>
        <name>United States</name>
      </country>
      <city>
        <name>Pittsburgh</name>
        <latitude>40.443901</latitude>
        <longitude>-79.956100</longitude>
      </city>
      <university>
        <name>NA</name>
        <department>NA</department>
      </university>
    </location>
  </author>
  <author>
    <name>Jeffrey Helzner</name>
    <email>jh2239@columbia.edu</email>
    <location>
      <country>
        <code>US</code>
        <name>United States</name>
      </country>
      <city>
        <name>New York</name>
        <latitude>40.800598</latitude>
        <longitude>-73.965302</longitude>
      </city>
      <university>
        <name>NA</name>
        <department>NA</department>
      </university>
    </location>
  </author>
  <author>
    <name>Marco Baioletti</name>
    <email>baioletti@dipmat.unipg.it</email>
    <location>
      <country>
        <code>IT</code>
        <name>Italy</name>
      </country>
      <city>
        <name>Perugia</name>
        <latitude>43.133301</latitude>
        <longitude>12.366700</longitude>
      </city>
      <university>
        <name>NA</name>
        <department>NA</department>
      </university>
    </location>
  </author>
  <author>
    <name>Giuseppe Busanello</name>
    <email>busanello@dmmm.uniroma1.it</email>
    <location>
      <country>
        <code>IT</code>
        <name>Italy</name>
      </country>
      <city>
        <name>Rome</name>
        <latitude>41.900002</latitude>
        <longitude>12.483300</longitude>
      </city>
      <university>
        <name>NA</name>
        <department>NA</department>
      </university>
    </location>
  </author>
  <author>
    <name>Barbara Vantaggi</name>
    <email>vantaggi@dmmm.uniroma1.it</email>
    <location>
      <country>
        <code>IT</code>
        <name>Italy</name>
      </country>
      <city>
        <name>Rome</name>
        <latitude>41.900002</latitude>
        <longitude>12.483300</longitude>
      </city>
      <university>
        <name>NA</name>
        <department>NA</department>
      </university>
    </location>
  </author>
  <author>
    <name>Rebecca Baker</name>
    <email>r.m.baker@durham.ac.uk</email>
    <location>
      <country>
        <code>GB</code>
        <name>United Kingdom</name>
      </country>
      <city>
        <name>Durham</name>
        <latitude>54.766701</latitude>
        <longitude>-1.566700</longitude>
      </city>
      <university>
        <name>NA</name>
        <department>NA</department>
      </university>
    </location>
  </author>
  <author>
    <name>Frank Coolen</name>
    <email>Frank.Coolen@durham.ac.uk</email>
    <location>
      <country>
        <code>GB</code>
        <name>United Kingdom</name>
      </country>
      <city>
        <name>Durham</name>
        <latitude>54.766701</latitude>
        <longitude>-1.566700</longitude>
      </city>
      <university>
        <name>NA</name>
        <department>NA</department>
      </university>
    </location>
  </author>
  <author>
    <name>Alessio Benavoli</name>
    <email>alessio@idsia.ch</email>
    <location>
      <country>
        <code>CH</code>
        <name>Switzerland</name>
      </country>
      <city>
        <name>N/A</name>
        <latitude>47.000000</latitude>
        <longitude>8.000000</longitude>
      </city>
      <university>
        <name>NA</name>
        <department>NA</department>
      </university>
    </location>
  </author>
  <author>
    <name>Alessandro Antonucci</name>
    <email>alessandro@idsia.ch</email>
    <location>
      <country>
        <code>CH</code>
        <name>Switzerland</name>
      </country>
      <city>
        <name>N/A</name>
        <latitude>47.000000</latitude>
        <longitude>8.000000</longitude>
      </city>
      <university>
        <name>NA</name>
        <department>NA</department>
      </university>
    </location>
  </author>
  <author>
    <name>Yakov Ben-Haim</name>
    <email>yakov@technion.ac.il</email>
    <location>
      <country>
        <code>IL</code>
        <name>Israel</name>
      </country>
      <city>
        <name>N/A</name>
        <latitude>31.500000</latitude>
        <longitude>34.750000</longitude>
      </city>
      <university>
        <name>NA</name>
        <department>NA</department>
      </university>
    </location>
  </author>
  <author>
    <name>Veronica Biazzo</name>
    <email>vbiazzo@dmi.unict.it</email>
    <location>
      <country>
        <code>IT</code>
        <name>Italy</name>
      </country>
      <city>
        <name>Catania</name>
        <latitude>37.500000</latitude>
        <longitude>15.100000</longitude>
      </city>
      <university>
        <name>NA</name>
        <department>NA</department>
      </university>
    </location>
  </author>
  <author>
    <name>Angelo Gilio</name>
    <email>gilio@dmmm.uniroma1.it</email>
    <location>
      <country>
        <code>IT</code>
        <name>Italy</name>
      </country>
      <city>
        <name>Rome</name>
        <latitude>41.900002</latitude>
        <longitude>12.483300</longitude>
      </city>
      <university>
        <name>NA</name>
        <department>NA</department>
      </university>
    </location>
  </author>
  <author>
    <name>Giuseppe Sanfilippo</name>
    <email>sanfilippo@unipa.it</email>
    <location>
      <country>
        <code>IT</code>
        <name>Italy</name>
      </country>
      <city>
        <name>Palermo</name>
        <latitude>38.116699</latitude>
        <longitude>13.366700</longitude>
      </city>
      <university>
        <name>NA</name>
        <department>NA</department>
      </university>
    </location>
  </author>
  <author>
    <name>Andres Cano</name>
    <email>brone@mail.ru</email>
    <location>
      <country>
        <code>RU</code>
        <name>Russian Federation</name>
      </country>
      <city>
        <name>N/A</name>
        <latitude>60.000000</latitude>
        <longitude>100.000000</longitude>
      </city>
      <university>
        <name>NA</name>
        <department>NA</department>
      </university>
    </location>
  </author>
  <author>
    <name>Thomas Augustin</name>
    <email>thomas@stat.uni-muenchen.de</email>
    <location>
      <country>
        <code>DE</code>
        <name>Germany</name>
      </country>
      <city>
        <name>Munich</name>
        <latitude>48.150002</latitude>
        <longitude>11.583300</longitude>
      </city>
      <university>
        <name>NA</name>
        <department>NA</department>
      </university>
    </location>
  </author>
  <author>
    <name>Giuliana Regoli</name>
    <email>regoli@dipmat.unipg.it</email>
    <location>
      <country>
        <code>IT</code>
        <name>Italy</name>
      </country>
      <city>
        <name>Perugia</name>
        <latitude>43.133301</latitude>
        <longitude>12.366700</longitude>
      </city>
      <university>
        <name>NA</name>
        <department>NA</department>
      </university>
    </location>
  </author>
  <author>
    <name>Francesca Vattari</name>
    <email>vattari@dipmat.unipg.it</email>
    <location>
      <country>
        <code>IT</code>
        <name>Italy</name>
      </country>
      <city>
        <name>Perugia</name>
        <latitude>43.133301</latitude>
        <longitude>12.366700</longitude>
      </city>
      <university>
        <name>NA</name>
        <department>NA</department>
      </university>
    </location>
  </author>
  <author>
    <name>Marco Cattaneo</name>
    <email>cattaneo@stat.uni-muenchen.de</email>
    <location>
      <country>
        <code>DE</code>
        <name>Germany</name>
      </country>
      <city>
        <name>Munich</name>
        <latitude>48.150002</latitude>
        <longitude>11.583300</longitude>
      </city>
      <university>
        <name>NA</name>
        <department>NA</department>
      </university>
    </location>
  </author>
  <author>
    <name>Giorgio Corani</name>
    <email>giorgio@idsia.ch</email>
    <location>
      <country>
        <code>CH</code>
        <name>Switzerland</name>
      </country>
      <city>
        <name>N/A</name>
        <latitude>47.000000</latitude>
        <longitude>8.000000</longitude>
      </city>
      <university>
        <name>NA</name>
        <department>NA</department>
      </university>
    </location>
  </author>
  <author>
    <name>Cassio Campos</name>
    <email>cassio@idsia.ch</email>
    <location>
      <country>
        <code>CH</code>
        <name>Switzerland</name>
      </country>
      <city>
        <name>N/A</name>
        <latitude>47.000000</latitude>
        <longitude>8.000000</longitude>
      </city>
      <university>
        <name>NA</name>
        <department>NA</department>
      </university>
    </location>
  </author>
  <author>
    <name>Sun Yi</name>
    <email>yi@idsia.ch</email>
    <location>
      <country>
        <code>CH</code>
        <name>Switzerland</name>
      </country>
      <city>
        <name>N/A</name>
        <latitude>47.000000</latitude>
        <longitude>8.000000</longitude>
      </city>
      <university>
        <name>NA</name>
        <department>NA</department>
      </university>
    </location>
  </author>
  <author>
    <name>Ines Couso</name>
    <email>couso@uniovi.es</email>
    <location>
      <country>
        <code>ES</code>
        <name>Spain</name>
      </country>
      <city>
        <name>Oviedo</name>
        <latitude>43.366699</latitude>
        <longitude>-5.833300</longitude>
      </city>
      <university>
        <name>NA</name>
        <department>NA</department>
      </university>
    </location>
  </author>
  <author>
    <name>Serafin Moral</name>
    <email>smc@decsai.ugr.es</email>
    <location>
      <country>
        <code>ES</code>
        <name>Spain</name>
      </country>
      <city>
        <name>Granada</name>
        <latitude>37.183300</latitude>
        <longitude>-3.600000</longitude>
      </city>
      <university>
        <name>NA</name>
        <department>NA</department>
      </university>
    </location>
  </author>
  <author>
    <name>Fabio  Cozman</name>
    <email>fgcozman@usp.br</email>
    <location>
      <country>
        <code>BR</code>
        <name>Brazil</name>
      </country>
      <city>
        <name/>
        <latitude>-23.533300</latitude>
        <longitude>-46.616699</longitude>
      </city>
      <university>
        <name>NA</name>
        <department>NA</department>
      </university>
    </location>
  </author>
  <author>
    <name>Richard Crossman</name>
    <email>r.j.crossman@durham.ac.uk</email>
    <location>
      <country>
        <code>GB</code>
        <name>United Kingdom</name>
      </country>
      <city>
        <name>Durham</name>
        <latitude>54.766701</latitude>
        <longitude>-1.566700</longitude>
      </city>
      <university>
        <name>NA</name>
        <department>NA</department>
      </university>
    </location>
  </author>
  <author>
    <name>Pauline Coolen-Schrijner</name>
    <email>NA</email>
  </author>
  <author>
    <name>Damjan Skulj</name>
    <email>damjan.skulj@fdv.uni-lj.si</email>
    <location>
      <country>
        <code>SI</code>
        <name>Slovenia</name>
      </country>
      <city>
        <name>Ljubljana</name>
        <latitude>46.055302</latitude>
        <longitude>14.514400</longitude>
      </city>
      <university>
        <name>NA</name>
        <department>NA</department>
      </university>
    </location>
  </author>
  <author>
    <name>Fabio Cuzzolin</name>
    <email>fabio.cuzzolin@brookes.ac.uk</email>
    <location>
      <country>
        <code>GB</code>
        <name>United Kingdom</name>
      </country>
      <city>
        <name>Oxford</name>
        <latitude>51.750000</latitude>
        <longitude>-1.250000</longitude>
      </city>
      <university>
        <name>NA</name>
        <department>NA</department>
      </university>
    </location>
  </author>
  <author>
    <name>Gert De Cooman</name>
    <email>gert.decooman@ugent.be</email>
    <location>
      <country>
        <code>BE</code>
        <name>Belgium</name>
      </country>
      <city>
        <name>Ghent</name>
        <latitude>51.049999</latitude>
        <longitude>3.716700</longitude>
      </city>
      <university>
        <name>NA</name>
        <department>NA</department>
      </university>
    </location>
  </author>
  <author>
    <name>Filip Hermans</name>
    <email>filip.hermans@ugent.be</email>
    <location>
      <country>
        <code>BE</code>
        <name>Belgium</name>
      </country>
      <city>
        <name>Ghent</name>
        <latitude>51.049999</latitude>
        <longitude>3.716700</longitude>
      </city>
      <university>
        <name>NA</name>
        <department>NA</department>
      </university>
    </location>
  </author>
  <author>
    <name>Marco Zaffalon</name>
    <email>zaffalon@idsia.ch</email>
    <location>
      <country>
        <code>CH</code>
        <name>Switzerland</name>
      </country>
      <city>
        <name>N/A</name>
        <latitude>47.000000</latitude>
        <longitude>8.000000</longitude>
      </city>
      <university>
        <name>NA</name>
        <department>NA</department>
      </university>
    </location>
  </author>
  <author>
    <name>Erik Quaeghebeur</name>
    <email>erik.quaeghebeur@ugent.be</email>
    <location>
      <country>
        <code>BE</code>
        <name>Belgium</name>
      </country>
      <city>
        <name>Ghent</name>
        <latitude>51.049999</latitude>
        <longitude>3.716700</longitude>
      </city>
      <university>
        <name>NA</name>
        <department>NA</department>
      </university>
    </location>
  </author>
  <author>
    <name>Karina  Delgado</name>
    <email>kvd@ime.usp.br</email>
    <location>
      <country>
        <code>BR</code>
        <name>Brazil</name>
      </country>
      <city>
        <name/>
        <latitude>-23.533300</latitude>
        <longitude>-46.616699</longitude>
      </city>
      <university>
        <name>NA</name>
        <department>NA</department>
      </university>
    </location>
  </author>
  <author>
    <name>Leliane Barros</name>
    <email>leliane@ime.usp.br</email>
    <location>
      <country>
        <code>BR</code>
        <name>Brazil</name>
      </country>
      <city>
        <name/>
        <latitude>-23.533300</latitude>
        <longitude>-46.616699</longitude>
      </city>
      <university>
        <name>NA</name>
        <department>NA</department>
      </university>
    </location>
  </author>
  <author>
    <name>Ricardo Shirota Filho</name>
    <email>ricardo.shirota@poli.usp.br</email>
    <location>
      <country>
        <code>BR</code>
        <name>Brazil</name>
      </country>
      <city>
        <name/>
        <latitude>-23.533300</latitude>
        <longitude>-46.616699</longitude>
      </city>
      <university>
        <name>NA</name>
        <department>NA</department>
      </university>
    </location>
  </author>
  <author>
    <name>Sebastian Maass</name>
    <email>sdestercke@gmail.com</email>
    <location>
      <country>
        <code>US</code>
        <name>United States</name>
      </country>
      <city>
        <name>Mountain View</name>
        <latitude>37.419201</latitude>
        <longitude>-122.057404</longitude>
      </city>
      <university>
        <name>NA</name>
        <department>NA</department>
      </university>
    </location>
  </author>
  <author>
    <name>Didier Dubois</name>
    <email>dubois@irit.fr</email>
    <location>
      <country>
        <code>FR</code>
        <name>France</name>
      </country>
      <city>
        <name>Toulouse</name>
        <latitude>43.599998</latitude>
        <longitude>1.433300</longitude>
      </city>
      <university>
        <name>NA</name>
        <department>NA</department>
      </university>
    </location>
  </author>
  <author>
    <name>Malcolm Farrow</name>
    <email>malcolm.farrow@newcastle.ac.uk</email>
    <location>
      <country>
        <code>GB</code>
        <name>United Kingdom</name>
      </country>
      <city>
        <name>Newcastle Upon Tyne</name>
        <latitude>54.988098</latitude>
        <longitude>-1.619400</longitude>
      </city>
      <university>
        <name>NA</name>
        <department>NA</department>
      </university>
    </location>
  </author>
  <author>
    <name>Michael Goldstein</name>
    <email>michael.goldstein@durham.ac.uk</email>
    <location>
      <country>
        <code>GB</code>
        <name>United Kingdom</name>
      </country>
      <city>
        <name>Durham</name>
        <latitude>54.766701</latitude>
        <longitude>-1.566700</longitude>
      </city>
      <university>
        <name>NA</name>
        <department>NA</department>
      </university>
    </location>
  </author>
  <author>
    <name>Thomas Fetz</name>
    <email>Thomas.Fetz@uibk.ac.at</email>
    <location>
      <country>
        <code>AT</code>
        <name>Austria</name>
      </country>
      <city>
        <name>Innsbruck</name>
        <latitude>47.266701</latitude>
        <longitude>11.400000</longitude>
      </city>
      <university>
        <name>NA</name>
        <department>NA</department>
      </university>
    </location>
  </author>
  <author>
    <name>Robert Hable</name>
    <email>Robert.Hable@uni-bayreuth.de</email>
    <location>
      <country>
        <code>DE</code>
        <name>Germany</name>
      </country>
      <city>
        <name>Bayreuth</name>
        <latitude>49.948101</latitude>
        <longitude>11.578300</longitude>
      </city>
      <university>
        <name>NA</name>
        <department>NA</department>
      </university>
    </location>
  </author>
  <author>
    <name>Frank Hampel</name>
    <email>hampel@stat.math.ethz.ch</email>
    <location>
      <country>
        <code>CH</code>
        <name>Switzerland</name>
      </country>
      <city>
        <name/>
        <latitude>47.366699</latitude>
        <longitude>8.550000</longitude>
      </city>
      <university>
        <name>NA</name>
        <department>NA</department>
      </university>
    </location>
  </author>
  <author>
    <name>Peter Harremoes</name>
    <email>P.Harremoes@cwi.nl</email>
    <location>
      <country>
        <code>NL</code>
        <name>Netherlands</name>
      </country>
      <city>
        <name>N/A</name>
        <latitude>52.500000</latitude>
        <longitude>5.750000</longitude>
      </city>
      <university>
        <name>NA</name>
        <department>NA</department>
      </university>
    </location>
  </author>
  <author>
    <name>Nathan Huntley</name>
    <email>nathan.huntley@durham.ac.uk</email>
    <location>
      <country>
        <code>GB</code>
        <name>United Kingdom</name>
      </country>
      <city>
        <name>Durham</name>
        <latitude>54.766701</latitude>
        <longitude>-1.566700</longitude>
      </city>
      <university>
        <name>NA</name>
        <department>NA</department>
      </university>
    </location>
  </author>
  <author>
    <name>Matthias Troffaes</name>
    <email>matthias.troffaes@gmail.com</email>
    <location>
      <country>
        <code>US</code>
        <name>United States</name>
      </country>
      <city>
        <name>Mountain View</name>
        <latitude>37.419201</latitude>
        <longitude>-122.057404</longitude>
      </city>
      <university>
        <name>NA</name>
        <department>NA</department>
      </university>
    </location>
  </author>
  <author>
    <name>Radim Jirousek</name>
    <email>radim@utia.cas.cz</email>
    <location>
      <country>
        <code>CZ</code>
        <name>Czech Republic</name>
      </country>
      <city>
        <name>Prague</name>
        <latitude>50.083302</latitude>
        <longitude>14.466700</longitude>
      </city>
      <university>
        <name>NA</name>
        <department>NA</department>
      </university>
    </location>
  </author>
  <author>
    <name>Alexander Karlsson</name>
    <email>alexander.karlsson@his.se</email>
    <location>
      <country>
        <code>SE</code>
        <name>Sweden</name>
      </country>
      <city>
        <name>N/A</name>
        <latitude>62.000000</latitude>
        <longitude>15.000000</longitude>
      </city>
      <university>
        <name>NA</name>
        <department>NA</department>
      </university>
    </location>
  </author>
  <author>
    <name>Ronnie Johansson</name>
    <email>ronnie.johansson@his.se</email>
    <location>
      <country>
        <code>SE</code>
        <name>Sweden</name>
      </country>
      <city>
        <name>N/A</name>
        <latitude>62.000000</latitude>
        <longitude>15.000000</longitude>
      </city>
      <university>
        <name>NA</name>
        <department>NA</department>
      </university>
    </location>
  </author>
  <author>
    <name>Sten F Andler</name>
    <email>sten.f.andler@his.se</email>
    <location>
      <country>
        <code>SE</code>
        <name>Sweden</name>
      </country>
      <city>
        <name>N/A</name>
        <latitude>62.000000</latitude>
        <longitude>15.000000</longitude>
      </city>
      <university>
        <name>NA</name>
        <department>NA</department>
      </university>
    </location>
  </author>
  <author>
    <name>Tomas Kroupa</name>
    <email>kroupa@utia.cas.cz</email>
    <location>
      <country>
        <code>CZ</code>
        <name>Czech Republic</name>
      </country>
      <city>
        <name>Prague</name>
        <latitude>50.083302</latitude>
        <longitude>14.466700</longitude>
      </city>
      <university>
        <name>NA</name>
        <department>NA</department>
      </university>
    </location>
  </author>
  <author>
    <name>Jonathan Lawry</name>
    <email>j.lawry@bristol.ac.uk</email>
    <location>
      <country>
        <code>GB</code>
        <name>United Kingdom</name>
      </country>
      <city>
        <name>Bristol</name>
        <latitude>51.450001</latitude>
        <longitude>-2.583300</longitude>
      </city>
      <university>
        <name>NA</name>
        <department>NA</department>
      </university>
    </location>
  </author>
  <author>
    <name>Ines Gonzalez-Rodriguez</name>
    <email>ines.gonzalez@unican.es</email>
    <location>
      <country>
        <code>ES</code>
        <name>Spain</name>
      </country>
      <city>
        <name>Palma</name>
        <latitude>39.566700</latitude>
        <longitude>2.650000</longitude>
      </city>
      <university>
        <name>NA</name>
        <department>NA</department>
      </university>
    </location>
  </author>
  <author>
    <name>Yongchuan Tang</name>
    <email>tyongchuan@gmail.com</email>
    <location>
      <country>
        <code>US</code>
        <name>United States</name>
      </country>
      <city>
        <name>Mountain View</name>
        <latitude>37.419201</latitude>
        <longitude>-122.057404</longitude>
      </city>
      <university>
        <name>NA</name>
        <department>NA</department>
      </university>
    </location>
  </author>
  <author>
    <name>Weiru Liu</name>
    <email>w.liu@qub.ac.uk</email>
    <location>
      <country>
        <code>GB</code>
        <name>United Kingdom</name>
      </country>
      <city>
        <name>Belfast</name>
        <latitude>54.583302</latitude>
        <longitude>-5.933300</longitude>
      </city>
      <university>
        <name>NA</name>
        <department>NA</department>
      </university>
    </location>
  </author>
  <author>
    <name>Anbu Yue</name>
    <email>a.yue@qub.ac.uk</email>
    <location>
      <country>
        <code>GB</code>
        <name>United Kingdom</name>
      </country>
      <city>
        <name>Belfast</name>
        <latitude>54.583302</latitude>
        <longitude>-5.933300</longitude>
      </city>
      <university>
        <name>NA</name>
        <department>NA</department>
      </university>
    </location>
  </author>
  <author>
    <name>Kevin Loquin</name>
    <email>loquin@irit.fr</email>
    <location>
      <country>
        <code>FR</code>
        <name>France</name>
      </country>
      <city>
        <name>Toulouse</name>
        <latitude>43.599998</latitude>
        <longitude>1.433300</longitude>
      </city>
      <university>
        <name>NA</name>
        <department>NA</department>
      </university>
    </location>
  </author>
  <author>
    <name>Olivier Strauss</name>
    <email>strauss@lirmm.fr</email>
    <location>
      <country>
        <code>FR</code>
        <name>France</name>
      </country>
      <city>
        <name>Montpellier</name>
        <latitude>43.599998</latitude>
        <longitude>3.883300</longitude>
      </city>
      <university>
        <name>NA</name>
        <department>NA</department>
      </university>
    </location>
  </author>
  <author>
    <name>Tahani Maturi</name>
    <email>tahani.maturi@durham.ac.uk</email>
    <location>
      <country>
        <code>GB</code>
        <name>United Kingdom</name>
      </country>
      <city>
        <name>Durham</name>
        <latitude>54.766701</latitude>
        <longitude>-1.566700</longitude>
      </city>
      <university>
        <name>NA</name>
        <department>NA</department>
      </university>
    </location>
  </author>
  <author>
    <name>David Mercier</name>
    <email>david.mercier@univ-artois.fr</email>
    <location>
      <country>
        <code>FR</code>
        <name>France</name>
      </country>
      <city>
        <name>N/A</name>
        <latitude>46.000000</latitude>
        <longitude>2.000000</longitude>
      </city>
      <university>
        <name>NA</name>
        <department>NA</department>
      </university>
    </location>
  </author>
  <author>
    <name>Eric Lefevre</name>
    <email>eric.lefevre@univ-artois.fr</email>
    <location>
      <country>
        <code>FR</code>
        <name>France</name>
      </country>
      <city>
        <name>N/A</name>
        <latitude>46.000000</latitude>
        <longitude>2.000000</longitude>
      </city>
      <university>
        <name>NA</name>
        <department>NA</department>
      </university>
    </location>
  </author>
  <author>
    <name>Enrique Miranda</name>
    <email>mirandaenrique@uniovi.es</email>
    <location>
      <country>
        <code>ES</code>
        <name>Spain</name>
      </country>
      <city>
        <name>Oviedo</name>
        <latitude>43.366699</latitude>
        <longitude>-5.833300</longitude>
      </city>
      <university>
        <name>NA</name>
        <department>NA</department>
      </university>
    </location>
  </author>
  <author>
    <name>Robert Nau</name>
    <email>robert.nau@duke.edu</email>
    <location>
      <country>
        <code>US</code>
        <name>United States</name>
      </country>
      <city>
        <name>Durham</name>
        <latitude>35.995399</latitude>
        <longitude>-78.901901</longitude>
      </city>
      <university>
        <name>NA</name>
        <department>NA</department>
      </university>
    </location>
  </author>
  <author>
    <name>Victor Richmond  Jose</name>
    <email>vrj@duke.edu</email>
    <location>
      <country>
        <code>US</code>
        <name>United States</name>
      </country>
      <city>
        <name>Durham</name>
        <latitude>35.995399</latitude>
        <longitude>-78.901901</longitude>
      </city>
      <university>
        <name>NA</name>
        <department>NA</department>
      </university>
    </location>
  </author>
  <author>
    <name>Robert Winkler</name>
    <email>rwinkler@duke.edu</email>
    <location>
      <country>
        <code>US</code>
        <name>United States</name>
      </country>
      <city>
        <name>Durham</name>
        <latitude>35.995399</latitude>
        <longitude>-78.901901</longitude>
      </city>
      <university>
        <name>NA</name>
        <department>NA</department>
      </university>
    </location>
  </author>
  <author>
    <name>Renato Pelessoni</name>
    <email>renato.pelessoni@econ.units.it</email>
    <location>
      <country>
        <code>IT</code>
        <name>Italy</name>
      </country>
      <city>
        <name>Trieste</name>
        <latitude>45.648602</latitude>
        <longitude>13.780000</longitude>
      </city>
      <university>
        <name>NA</name>
        <department>NA</department>
      </university>
    </location>
  </author>
  <author>
    <name>Paolo Vicig</name>
    <email>paolo.vicig@econ.units.it</email>
    <location>
      <country>
        <code>IT</code>
        <name>Italy</name>
      </country>
      <city>
        <name>Trieste</name>
        <latitude>45.648602</latitude>
        <longitude>13.780000</longitude>
      </city>
      <university>
        <name>NA</name>
        <department>NA</department>
      </university>
    </location>
  </author>
  <author>
    <name>Frederic Pichon</name>
    <email>frederic.pichon@thalesgroup.com</email>
    <location>
      <country>
        <code>GB</code>
        <name>United Kingdom</name>
      </country>
      <city>
        <name>N/A</name>
        <latitude>54.000000</latitude>
        <longitude>-2.000000</longitude>
      </city>
      <university>
        <name>NA</name>
        <department>NA</department>
      </university>
    </location>
  </author>
  <author>
    <name>Thierry Denoeux</name>
    <email>tdenoeux@hds.utc.fr</email>
    <location>
      <country>
        <code>FR</code>
        <name>France</name>
      </country>
      <city>
        <name/>
        <latitude>49.416698</latitude>
        <longitude>2.833300</longitude>
      </city>
      <university>
        <name>NA</name>
        <department>NA</department>
      </university>
    </location>
  </author>
  <author>
    <name>Bernhard Schmelzer</name>
    <email>bernhard.schmelzer@uibk.ac.at</email>
    <location>
      <country>
        <code>AT</code>
        <name>Austria</name>
      </country>
      <city>
        <name>Innsbruck</name>
        <latitude>47.266701</latitude>
        <longitude>11.400000</longitude>
      </city>
      <university>
        <name>NA</name>
        <department>NA</department>
      </university>
    </location>
  </author>
  <author>
    <name>Michael Smithson</name>
    <email>Michael.Smithson@anu.edu.au</email>
    <location>
      <country>
        <code/>
        <name/>
      </country>
      <city>
        <name/>
        <latitude/>
        <longitude/>
      </city>
      <university>
        <name/>
        <department/>
      </university>
    </location>
  </author>
  <author>
    <name>Joerg Stoye</name>
    <email>j.stoye@nyu.edu</email>
    <location>
      <country>
        <code>US</code>
        <name>United States</name>
      </country>
      <city>
        <name>New York</name>
        <latitude>40.731701</latitude>
        <longitude>-73.988503</longitude>
      </city>
      <university>
        <name>NA</name>
        <department>NA</department>
      </university>
    </location>
  </author>
  <author>
    <name>David Sundgren</name>
    <email>dsn@hig.se</email>
    <location>
      <country>
        <code>SE</code>
        <name>Sweden</name>
      </country>
      <city>
        <name/>
        <latitude>60.666698</latitude>
        <longitude>17.166700</longitude>
      </city>
      <university>
        <name>NA</name>
        <department>NA</department>
      </university>
    </location>
  </author>
  <author>
    <name>Love Ekenberg</name>
    <email>lovek@dsv.su.se</email>
    <location>
      <country>
        <code>SE</code>
        <name>Sweden</name>
      </country>
      <city>
        <name>Stockholm</name>
        <latitude>59.333302</latitude>
        <longitude>18.049999</longitude>
      </city>
      <university>
        <name>NA</name>
        <department>NA</department>
      </university>
    </location>
  </author>
  <author>
    <name>Mats Danielson</name>
    <email>mad@dsv.su.se</email>
    <location>
      <country>
        <code>SE</code>
        <name>Sweden</name>
      </country>
      <city>
        <name>Stockholm</name>
        <latitude>59.333302</latitude>
        <longitude>18.049999</longitude>
      </city>
      <university>
        <name>NA</name>
        <department>NA</department>
      </university>
    </location>
  </author>
  <author>
    <name>Lev Utkin</name>
    <email>lev.utkin@mail.ru</email>
    <location>
      <country>
        <code>RU</code>
        <name>Russian Federation</name>
      </country>
      <city>
        <name>N/A</name>
        <latitude>60.000000</latitude>
        <longitude>100.000000</longitude>
      </city>
      <university>
        <name>NA</name>
        <department>NA</department>
      </university>
    </location>
  </author>
  <author>
    <name>Svetlana Zatenko</name>
    <email>s_lana2004@mail.ru</email>
    <location>
      <country>
        <code>RU</code>
        <name>Russian Federation</name>
      </country>
      <city>
        <name>N/A</name>
        <latitude>60.000000</latitude>
        <longitude>100.000000</longitude>
      </city>
      <university>
        <name>NA</name>
        <department>NA</department>
      </university>
    </location>
  </author>
  <author>
    <name>Jioina Vejnarova</name>
    <email>vejnar@vse.cz</email>
    <location>
      <country>
        <code>CZ</code>
        <name>Czech Republic</name>
      </country>
      <city>
        <name>Prague</name>
        <latitude>50.083302</latitude>
        <longitude>14.466700</longitude>
      </city>
      <university>
        <name>NA</name>
        <department>NA</department>
      </university>
    </location>
  </author>
  <author>
    <name>Ian Vernon</name>
    <email>i.r.vernon@durham.ac.uk</email>
    <location>
      <country>
        <code>GB</code>
        <name>United Kingdom</name>
      </country>
      <city>
        <name>Durham</name>
        <latitude>54.766701</latitude>
        <longitude>-1.566700</longitude>
      </city>
      <university>
        <name>NA</name>
        <department>NA</department>
      </university>
    </location>
  </author>
  <author>
    <name>Christofer Waldenstrom</name>
    <email>christofer.waldenstrom@fhs.se</email>
    <location>
      <country>
        <code>SE</code>
        <name>Sweden</name>
      </country>
      <city>
        <name>N/A</name>
        <latitude>62.000000</latitude>
        <longitude>15.000000</longitude>
      </city>
      <university>
        <name>NA</name>
        <department>NA</department>
      </university>
    </location>
  </author>
</authors>
